{"VA": [{"province": "VA", "city": "VARESE", "name": "MASNAGO", "zip": "21100 - Varese", "company": "ESSELUNGA", "longitude": 8.754157594917665, "phone": "0332 228 391", "address": "VIA CARACCIOLO (ANG. VIA CAMPILUNGHI)", "latitude": 45.83971285, "id": 306}, {"province": "VA", "city": "VARESE", "name": "VARESE", "zip": "21100 - Varese", "company": "ESSELUNGA", "longitude": 8.754157594917665, "phone": "0332 265 260", "address": "VIALE BORRI (ANG. VIA COLONNA)", "latitude": 45.83971285, "id": 305}], "FR": [{"province": "FR", "city": " Frosinone", "coop": "PAC", "name": "Conad", "opening": "Adesso Aperto", "company": "CONAD", "selected": "true", "hours": "08:30 - 20:00", "longitude": 13.3433499689, "order": "https://s2c.altuoservizio.conad.it/007130/", "website": "null.007130.html", "time": "0 min", "address": "Via Aldo Moro 511, 03100  Frosinone", "latitude": 41.640167768, "storetype": "", "cap": "03100", "data": "Conad", "id": "007130", "distance": "0.09 km"}, {"website": "null.009208.html", "distance": "0.91 km", "coop": "PAC", "province": "FR", "name": "Conad", "city": " Frosinone", "company": "CONAD", "selected": "false", "longitude": 13.3333934, "id": "009208", "time": "1 min", "latitude": 41.6351526, "storetype": "", "cap": "03100", "data": "Conad", "order": "https://s2c.altuoservizio.conad.it/009208/", "address": "Viale Europa 27, 03100  Frosinone"}, {"province": "FR", "city": " Frosinone", "coop": "PAC", "name": "Conad", "opening": "Adesso Aperto", "company": "CONAD", "selected": "false", "hours": "08:30 - 20:00", "longitude": 13.3311305009, "order": "https://s2c.altuoservizio.conad.it/006824/", "website": "null.006824.html", "time": "3 min", "shipment": "https://s2c.altuoservizio.conad.it/006824/", "address": "Via Giacomo Puccini 42, 03100  Frosinone", "latitude": 41.6268113628, "storetype": "", "cap": "03100", "data": "Conad", "id": "006824", "distance": "1.71 km"}, {"website": "null.008223.html", "distance": "7.31 km", "coop": "PAC", "province": "FR", "name": "Conad", "city": " Ceccano", "company": "CONAD", "selected": "false", "longitude": 13.3371350449, "id": "008223", "shipment": "https://s2c.altuoservizio.conad.it/008223/", "time": "14 min", "latitude": 41.5739954403, "storetype": "", "cap": "03023", "data": "Conad", "order": "https://s2c.altuoservizio.conad.it/008223/", "address": "Via Fabrateria Vetus Snc, 03023  Ceccano"}, {"province": "FR", "city": " Ceccano", "coop": "PAC", "name": "Conad", "opening": "Adesso Aperto", "company": "CONAD", "selected": "false", "hours": "08:30 - 20:00", "longitude": 13.343412336, "order": "https://s2c.altuoservizio.conad.it/004232/", "website": "null.004232.html", "time": "15 min", "shipment": "https://s2c.altuoservizio.conad.it/004232/", "address": "Via Principe Umberto 1, 03023  Ceccano", "latitude": 41.5677962266, "storetype": "", "cap": "03023", "data": "Conad", "id": "004232", "distance": "7.99 km"}], "PV": [{"province": "PV", "city": "PAVIA", "name": "PAVIA", "zip": "27010 - San Genesio ed Uniti", "company": "ESSELUNGA", "longitude": 9.137825082826026, "phone": "038 226 210", "address": "VIA FABIO FILZI, 6 - ALLA MINERVA", "latitude": 45.036854649999995, "id": 273}, {"province": "PV", "city": "PAVIA", "name": "PAVIA", "zip": "27100 - Pavia", "company": "ESSELUNGA", "longitude": 9.137825082826026, "phone": "038 226 210", "address": "VIA FABIO FILZI, 6 - ALLA MINERVA", "latitude": 45.036854649999995, "id": 271}, {"province": "PV", "city": "PAVIA", "name": "PAVIA", "zip": "27010 - Borgarello", "company": "ESSELUNGA", "longitude": 9.137825082826026, "phone": "038 226 210", "address": "VIA FABIO FILZI, 6 - ALLA MINERVA", "latitude": 45.036854649999995, "id": 274}, {"province": "PV", "city": "PAVIA", "name": "PAVIA", "zip": "27012 - Certosa di Pavia", "company": "ESSELUNGA", "longitude": 9.137825082826026, "phone": "038 226 210", "address": "VIA FABIO FILZI, 6 - ALLA MINERVA", "latitude": 45.036854649999995, "id": 272}], "MB": [{"province": "MB", "city": "MONZA", "name": "MONZA BUONARROTI", "zip": "20900 - Monza", "company": "ESSELUNGA", "longitude": 9.2735257, "phone": "0392 847 818", "address": "VIA BUONARROTI", "latitude": 45.5834418, "id": 242}, {"province": "MB", "city": "MONZA", "name": "MONZA SAN FRUTTUOSO", "zip": "20900 - Monza", "company": "ESSELUNGA", "longitude": 9.2735257, "phone": "0392 141 257", "address": "VIA BREMBO, 4 - LOCALITA' SAN FRUTTUOSO", "latitude": 45.5834418, "id": 241}], "SS": [{"province": "SS", "city": " Sassari", "coop": "CDT", "name": "Conad", "extra": "https://s1b.altuoservizio.conad.it/conadshopstorefront/conad/it/store-finder/?codiceAnacan=007880&extra=true", "company": "CONAD", "selected": "true", "hours": "08:00 - 21:00", "longitude": 8.5588978689, "order": "https://s1a.altuoservizio.conad.it/conadshopstorefront/conad/it/store-finder/?codiceAnacan=007880", "website": "null.007880.html", "time": "1 min", "shipment": "https://s1c.altuoservizio.conad.it/conadshopstorefront/conad/it/store-finder/?codiceAnacan=007880", "address": "Viale Amendola 26, 07100  Sassari", "latitude": 40.7194967641, "storetype": "", "cap": "07100", "data": "Conad", "id": "007880", "opening": "Adesso Aperto", "distance": "0.76 km"}, {"website": "null.008099.html", "extra": "https://s1b.altuoservizio.conad.it/conadshopstorefront/conad/it/store-finder/?codiceAnacan=008099&extra=true", "storetype": "", "id": "008099", "city": " Sassari", "selected": "false", "shipment": "https://s1c.altuoservizio.conad.it/conadshopstorefront/conad/it/store-finder/?codiceAnacan=008099", "latitude": 40.7123693219, "province": "SS", "coop": "CDT", "opening": "Adesso Aperto", "company": "CONAD", "parafarmacia": "true", "address": "Via Budapest Snc, 07100  Sassari", "data": "Conad superstore", "hours": "08:30 - 21:00", "name": "Conad superstore", "cap": "07100", "longitude": 8.5502517689, "time": "3 min", "order": "https://s1a.altuoservizio.conad.it/conadshopstorefront/conad/it/store-finder/?codiceAnacan=008099", "distance": "1.58 km"}, {"website": "null.007879.html", "extra": "https://s1b.altuoservizio.conad.it/conadshopstorefront/conad/it/store-finder/?codiceAnacan=007879&extra=true", "storetype": "", "id": "007879", "city": " Sassari", "selected": "false", "shipment": "https://s1c.altuoservizio.conad.it/conadshopstorefront/conad/it/store-finder/?codiceAnacan=007879", "latitude": 40.7192122238, "province": "SS", "coop": "CDT", "opening": "Adesso Aperto", "company": "CONAD", "parafarmacia": "true", "address": "Via Gramsci 1, 07100  Sassari", "data": "Conad superstore", "hours": "08:30 - 21:00", "name": "Conad superstore", "cap": "07100", "longitude": 8.5780051723, "time": "4 min", "order": "https://s1a.altuoservizio.conad.it/conadshopstorefront/conad/it/store-finder/?codiceAnacan=007879", "distance": "2.02 km"}, {"province": "SS", "city": " Porto Torres", "coop": "CDT", "name": "Conad", "extra": "https://s1b.altuoservizio.conad.it/conadshopstorefront/conad/it/store-finder/?codiceAnacan=005740&extra=true", "company": "CONAD", "selected": "false", "hours": "08:30 - 20:30", "longitude": 8.4139517311, "order": "https://s1a.altuoservizio.conad.it/conadshopstorefront/conad/it/store-finder/?codiceAnacan=005740", "website": "null.005740.html", "time": "33 min", "address": "Via Delle Vigne Snc, 07046  Porto Torres", "latitude": 40.8296388715, "storetype": "", "cap": "07046", "data": "Conad", "id": "005740", "opening": "Adesso Aperto", "distance": "16.6 km"}], "NA": [{"province": "NA", "city": "66", "coop": "PAC", "name": "Conad superstore", "opening": "Adesso Aperto", "company": "CONAD", "selected": "true", "hours": "09:00 - 21:00", "longitude": 14.5170312392, "order": "https://s2c.altuoservizio.conad.it/008731/", "website": "null.008731.html", "time": "12 min", "shipment": "https://s2c.altuoservizio.conad.it/008731/", "address": "S.s. 7 Bis Km.51,5 66, 80035  Nola", "latitude": 40.9319056504, "storetype": "", "cap": "66", "data": "Conad superstore", "id": "008731", "distance": "6.21 km"}, {"website": "null.009331.html", "distance": "10.64 km", "coop": "PAC", "province": "NA", "name": "Conad", "city": " Sarno", "company": "CONAD", "selected": "false", "longitude": 14.6174026, "id": "009331", "shipment": "https://s2c.altuoservizio.conad.it/009331/", "time": "21 min", "latitude": 40.8152664, "storetype": "", "cap": "84087", "data": "Conad", "order": "https://s2c.altuoservizio.conad.it/009331/", "address": "Piazza Garibaldi Snc, 84087  Sarno"}, {"website": "null.002711.html", "distance": "10.83 km", "coop": "PAC", "province": "NA", "name": "Conad", "city": " Sant'anastasia", "company": "CONAD", "selected": "false", "longitude": 14.3912777, "id": "002711", "shipment": "https://s2c.altuoservizio.conad.it/002711/", "time": "21 min", "latitude": 40.87039043, "storetype": "", "cap": "80043", "data": "Conad", "order": "https://s2c.altuoservizio.conad.it/002711/", "address": "Via Arco 66, 80043  Sant'anastasia"}, {"province": "NA", "city": " Pompei", "coop": "PAC", "parafarmacia": "true", "name": "Conad superstore", "opening": "Adesso Aperto", "company": "CONAD", "selected": "false", "hours": "09:00 - 22:00", "longitude": 14.5031838, "order": "https://s2c.altuoservizio.conad.it/008591/", "website": "null.008591.html", "time": "30 min", "shipment": "https://s2c.altuoservizio.conad.it/008591/", "address": "Via Macello 22, 80045  Pompei", "latitude": 40.741392, "storetype": "", "cap": "80045", "data": "Conad superstore", "id": "008591", "distance": "15.05 km"}, {"province": "NA", "city": " Pagani", "coop": "PAC", "name": "Conad superstore", "opening": "Adesso Aperto", "company": "CONAD", "selected": "false", "hours": "09:00 - 21:00", "longitude": 14.5993077569, "order": "https://s2c.altuoservizio.conad.it/006451/", "website": "null.006451.html", "time": "31 min", "shipment": "https://s2c.altuoservizio.conad.it/006451/", "address": "Via De Gasperi 340, 84016  Pagani", "latitude": 40.7483669976, "storetype": "", "cap": "84016", "data": "Conad superstore", "id": "006451", "distance": "15.71 km"}, {"province": "NA", "city": " Sant'antonio Abate", "coop": "PAC", "name": "Conad", "opening": "Adesso Aperto", "company": "CONAD", "selected": "false", "hours": "08:00 - 13:30<br/>16:00 - 20:30", "longitude": 14.5358963, "order": "https://s2c.altuoservizio.conad.it/002417/", "website": "null.002417.html", "time": "31 min", "shipment": "https://s2c.altuoservizio.conad.it/002417/", "address": "Via Scafati 338, 80057  Sant'antonio Abate", "latitude": 40.7348252, "storetype": "", "cap": "80057", "data": "Conad", "id": "002417", "distance": "15.78 km"}, {"province": "NA", "city": " Nocera Inferiore", "coop": "PAC", "name": "Conad superstore", "opening": "Adesso Aperto", "company": "CONAD", "selected": "false", "hours": "07:30 - 21:00", "longitude": 14.6461796947, "order": "https://s2c.altuoservizio.conad.it/007176/", "website": "null.007176.html", "time": "35 min", "shipment": "https://s2c.altuoservizio.conad.it/007176/", "address": "Via G.b.castaldo 51, 84014  Nocera Inferiore", "latitude": 40.7461284427, "storetype": "", "cap": "84014", "data": "Conad superstore", "id": "007176", "distance": "17.95 km"}, {"province": "NA", "city": " Casoria", "coop": "PAC", "parafarmacia": "true", "name": "Conad superstore", "opening": "Adesso Aperto", "company": "CONAD", "selected": "false", "hours": "08:30 - 21:00", "longitude": 14.2928577017, "order": "https://s2c.altuoservizio.conad.it/008292/", "website": "null.008292.html", "time": "39 min", "shipment": "https://s2c.altuoservizio.conad.it/008292/", "address": "S.s. Sannitica 87  Km.8 Snc, 80026  Casoria", "latitude": 40.9202783947, "storetype": "", "cap": "80026", "data": "Conad superstore", "id": "008292", "distance": "19.7 km"}, {"website": "null.008730.html", "distance": "20.58 km", "coop": "PAC", "province": "NA", "name": "Conad", "city": " Napoli", "company": "CONAD", "selected": "false", "longitude": 14.2759302337, "id": "008730", "shipment": "https://s2c.altuoservizio.conad.it/008730/", "time": "41 min", "latitude": 40.8616559447, "storetype": "", "cap": "80100", "data": "Conad", "order": "https://s2c.altuoservizio.conad.it/008730/", "address": "Corso Malta 83, 80100  Napoli"}, {"province": "NA", "city": " Napoli", "coop": "PAC", "name": "Conad", "opening": "Adesso Aperto", "company": "CONAD", "selected": "false", "hours": "08:00 - 20:30", "longitude": 14.27113365, "order": "https://s2c.altuoservizio.conad.it/003321/", "website": "null.003321.html", "time": "41 min", "shipment": "https://s2c.altuoservizio.conad.it/003321/", "address": "Piazza Luigi Poderico 11, 80141  Napoli", "latitude": 40.86063986, "storetype": "", "cap": "80141", "data": "Conad", "id": "003321", "distance": "20.99 km"}, {"province": "NA", "city": " Cava De' Tirreni", "coop": "PAC", "parafarmacia": "true", "name": "Conad superstore", "opening": "Adesso Aperto", "company": "CONAD", "selected": "false", "hours": "07:30 - 21:00", "longitude": 14.7016076296, "order": "https://s2c.altuoservizio.conad.it/008434/", "website": "null.008434.html", "time": "47 min", "shipment": "https://s2c.altuoservizio.conad.it/008434/", "address": "Viale R. Romano 32, 84013  Cava De' Tirreni", "latitude": 40.7122456258, "storetype": "", "cap": "84013", "data": "Conad superstore", "id": "008434", "distance": "23.8 km"}, {"province": "NA", "city": " Napoli", "coop": "PAC", "name": "Sapori & dintorni conad", "opening": "Adesso Aperto", "company": "CONAD", "selected": "false", "hours": "08:00 - 21:30", "longitude": 14.241369, "order": "https://s2c.altuoservizio.conad.it/009121/", "website": "null.009121.html", "time": "47 min", "shipment": "https://s2c.altuoservizio.conad.it/009121/", "address": "Via Alabardieri 8, 80121  Napoli", "latitude": 40.835535, "storetype": "", "cap": "80121", "data": "Sapori & dintorni conad", "id": "009121", "distance": "23.86 km"}, {"province": "NA", "city": " Sant'arpino", "coop": "PAC", "name": "Conad superstore", "opening": "Adesso Aperto", "company": "CONAD", "selected": "false", "hours": "09:00 - 20:30", "longitude": 14.2513, "order": "https://s2c.altuoservizio.conad.it/009695/", "website": "null.009695.html", "time": "47 min", "shipment": "https://s2c.altuoservizio.conad.it/009695/", "address": "Via Barraccone Snc, 81030  Sant'arpino", "latitude": 40.9477, "storetype": "", "cap": "81030", "data": "Conad superstore", "id": "009695", "distance": "23.93 km"}, {"website": "null.008804.html", "distance": "23.96 km", "coop": "PAC", "province": "NA", "name": "Conad", "city": " Napoli", "company": "CONAD", "selected": "false", "longitude": 14.235142, "id": "008804", "shipment": "https://s2c.altuoservizio.conad.it/008804/", "time": "47 min", "latitude": 40.868095, "storetype": "", "cap": "80100", "data": "Conad", "order": "https://s2c.altuoservizio.conad.it/008804/", "address": "Viale Colli Aminei 365, 80100  Napoli"}], "BO": [{"province": "BO", "city": "BOLOGNA", "name": "BOLOGNA SAN VITALE", "zip": "40124 - Bologna;40125 - Bologna;40126 - Bologna;40127 - Bologna;40128 - Bologna;40136 - Bologna;40137 - Bologna;40138 - Bologna;40139 - Bologna;40141 - Bologna", "company": "ESSELUNGA", "longitude": 11.3430347, "phone": "0516 010 727", "address": "VIA GUELFA (ANG. VIA LENIN) - LOCALITA' SAN VITALE", "latitude": 44.4936714, "id": 307}, {"province": "BO", "city": "BOLOGNA", "name": "BOLOGNA SANTA VIOLA", "zip": "40121 - Bologna;40122 - Bologna;40123 - Bologna;40128 - Bologna;40129 - Bologna;40131 - Bologna;40132 - Bologna;40133 - Bologna;40134 - Bologna;40135 - Bologna;40136 - Bologna", "company": "ESSELUNGA", "longitude": 11.3430347, "phone": "051 310 781", "address": "VIA EMILIA PONENTE, 72 ", "latitude": 44.4936714, "id": 317}], "MI": [{"province": "MI", "city": "ROZZANO", "name": "ROZZANO", "zip": "20080 - Basiglio", "company": "ESSELUNGA", "longitude": 9.1541309, "phone": "0257 503 568", "address": "VIA MANZONI, 5", "latitude": 45.3832366, "id": 290}, {"province": "MI", "city": "MILANO", "name": "SUZZANI", "zip": "20091 - Bresso", "company": "ESSELUNGA", "longitude": 9.1905, "phone": "0266 114 468", "address": "VIALE SUZZANI, 221", "latitude": 45.4668, "id": 238}, {"province": "MI", "city": "MILANO", "name": "FELTRE", "zip": "20090 - Segrate", "company": "ESSELUNGA", "longitude": 9.1905, "phone": "0226 415 040", "address": "VIA FELTRE, 40", "latitude": 45.4668, "id": 240}, {"province": "MI", "city": "MILANO", "name": "RUBATTINO", "zip": "20090 - Segrate", "company": "ESSELUNGA", "longitude": 9.1905, "phone": "0221 597 394", "address": "VIA PITTERI, 84", "latitude": 45.4668, "id": 239}, {"province": "MI", "city": "SESTO SAN GIOVANNI", "name": "SESTO SAN GIOVANNI", "zip": "20099 - Sesto San Giovanni", "company": "ESSELUNGA", "longitude": 9.2376549, "phone": "0226 222 144", "address": "VIA ROVANI ANG. VIA N. SAURO", "latitude": 45.5357218, "id": 412}, {"province": "MI", "city": "MILANO", "name": "LORENTEGGIO", "zip": "20094 - Corsico", "company": "ESSELUNGA", "longitude": 9.1905, "phone": "0248 376 549", "address": "VIA LORENTEGGIO, 219", "latitude": 45.4668, "id": 237}, {"province": "MI", "city": "ROZZANO", "name": "ROZZANO", "zip": "20090 - Opera", "company": "ESSELUNGA", "longitude": 9.1541309, "phone": "0257 503 568", "address": "VIA MANZONI, 5", "latitude": 45.3832366, "id": 286}, {"province": "MI", "city": "ROZZANO", "name": "ROZZANO", "zip": "20090 - Assago", "company": "ESSELUNGA", "longitude": 9.1541309, "phone": "0257 503 568", "address": "VIA MANZONI, 5", "latitude": 45.3832366, "id": 288}, {"province": "MI", "city": "MILANO", "name": "ADRIANO", "zip": "20127 - Milano;20128 - Milano;20132 - Milano", "company": "ESSELUNGA", "longitude": 9.1905, "phone": "0227 206 861", "address": "VIA ADRIANO, 81", "latitude": 45.4668, "id": 281}, {"province": "MI", "city": "MILANO", "name": "AFFORI", "zip": "20161 - Milano;20162 - Milano;20148 - Milano", "company": "ESSELUNGA", "longitude": 9.1905, "phone": "0266 200 332", "address": "VIA PELLEGRINO ROSSI, 63", "latitude": 45.4668, "id": 275}, {"province": "MI", "city": "MILANO", "name": "FAMAGOSTA", "zip": "20142 - Milano;20141 - Milano;20143 - Milano;20136 - Milano", "company": "ESSELUNGA", "longitude": 9.1905, "phone": "0284 892 312 ", "address": "VIALE FAMAGOSTA, 56", "latitude": 45.4668, "id": 408}, {"province": "MI", "city": "MILANO", "name": "FELTRE", "zip": "20134 - Milano;20132 - Milano;20131 - Milano;20128 - Milano;20127 - Milano", "company": "ESSELUNGA", "longitude": 9.1905, "phone": "0226 415 040", "address": "VIA FELTRE, 40", "latitude": 45.4668, "id": 211}, {"province": "MI", "city": "MILANO", "name": "FORZE ARMATE", "zip": "20153 - Milano;20152 - Milano;20147 - Milano", "company": "ESSELUNGA", "longitude": 9.1905, "phone": "0248 929 217", "address": "VIA DELLE FORZE ARMATE (ANG. VIA VAL DEVERO)", "latitude": 45.4668, "id": 161}, {"province": "MI", "city": "MILANO", "name": "JENNER", "zip": "20161 - Milano;20159 - Milano;20158 - Milano", "company": "ESSELUNGA", "longitude": 9.1905, "phone": "0269 015 604", "address": "VIA LEGNONE (ANG. VIALE JENNER)", "latitude": 45.4668, "id": 143}, {"province": "MI", "city": "MILANO", "name": "LORENTEGGIO", "zip": "20152 - Milano;20147 - Milano;20146 - Milano;20143 - Milano", "company": "ESSELUNGA", "longitude": 9.1905, "phone": "0248 376 549", "address": "VIA LORENTEGGIO, 219", "latitude": 45.4668, "id": 162}, {"province": "MI", "city": "MILANO", "name": "LOSANNA", "zip": "20155 - Milano;20154 - Milano;20149 - Milano;20145 - Milano", "company": "ESSELUNGA", "longitude": 9.1905, "phone": "02 34 691 088", "address": "VIA LOSANNA, 20/22", "latitude": 45.4668, "id": 155}, {"province": "MI", "city": "MILANO", "name": "MAC MAHON", "zip": "20157 - Milano;20156 - Milano;20155 - Milano;20154 - Milano", "company": "ESSELUNGA", "longitude": 9.1905, "phone": "0239 214 308", "address": "VIA MAC MAHON, 128", "latitude": 45.4668, "id": 149}, {"province": "MI", "city": "MILANO", "name": "MILANO CERTOSA", "zip": "20161 - Milano;20157 - Milano;20156 - Milano;20155 - Milano;20154 - Milano;20151 - Milano;20149 - Milano;20145 - Milano", "company": "ESSELUNGA", "longitude": 9.1905, "phone": "0233 200 162", "address": "VIA PALIZZI, 69", "latitude": 45.4668, "id": 142}, {"province": "MI", "city": "MILANO", "name": "MISSAGLIA", "zip": "20143 - Milano;20142 - Milano;20141 - Milano", "company": "ESSELUNGA", "longitude": 9.1905, "phone": "0289 301 043", "address": "VIA DEI MISSAGLIA, 61/A", "latitude": 45.4668, "id": 189}, {"province": "MI", "city": "MILANO", "name": "MONTE ROSA", "zip": "20149 - Milano;20148 - Milano;20146 - Milano;20145 - Milano", "company": "ESSELUNGA", "longitude": 9.1905, "phone": "0248 005 955", "address": "VIA MONTE ROSA (ANG. VIA DOMENICHINO)", "latitude": 45.4668, "id": 170}, {"province": "MI", "city": "MILANO", "name": "NOVARA", "zip": "20153 - Milano;20151 - Milano;20148 - Milano;20147 - Milano", "company": "ESSELUNGA", "longitude": 9.1905, "phone": "0248 703 052", "address": "VIA NOVARA, 86", "latitude": 45.4668, "id": 160}, {"province": "MI", "city": "MILANO", "name": "OVIDIO", "zip": "20139 - Milano;20138 - Milano;20137 - Milano;20134 - Milano;20133 - Milano", "company": "ESSELUNGA", "longitude": 9.1905, "phone": "02 744 029", "address": "VIA TOSCOLANO (ANG. PIAZZA OVIDIO)", "latitude": 45.4668, "id": 198}, {"province": "MI", "city": "MILANO", "name": "PAPINIANO", "zip": "20122 - Milano;20123 - Milano;20144 - Milano", "company": "ESSELUNGA", "longitude": 9.1905, "phone": "024 987 674", "address": "VIALE PAPINIANO, 27", "latitude": 45.4668, "id": 278}, {"province": "MI", "city": "MILANO", "name": "PEZZOTTI", "zip": "20142 - Milano;20141 - Milano;20136 - Milano", "company": "ESSELUNGA", "longitude": 9.1905, "phone": "028 435 791", "address": "VIA PEZZOTTI (ANG.VIA S.AMPELLIO)", "latitude": 45.4668, "id": 191}, {"province": "MI", "city": "MILANO", "name": "PIAVE", "zip": "20135 - Milano;20133 - Milano;20131 - Milano;20129 - Milano;20124 - Milano;20122 - Milano;20121 - Milano", "company": "ESSELUNGA", "longitude": 9.1905, "phone": "022 047 871", "address": "VIALE PIAVE, 38/B", "latitude": 45.4668, "id": 208}, {"province": "MI", "city": "MILANO", "name": "PORTA NUOVA", "zip": "20158 - Milano;20121 - Milano;20124 - Milano;20154 - Milano;20159 - Milano", "company": "ESSELUNGA", "longitude": 9.1905, "phone": "0265 560 991", "address": "VIALE DON LUIGI STURZO, 13", "latitude": 45.4668, "id": 303}, {"province": "MI", "city": "MILANO", "name": "PORTA VITTORIA", "zip": "20137 - Milano;20135 - Milano;20133 - Milano;20129 - Milano;20122 - Milano", "company": "ESSELUNGA", "longitude": 9.1905, "phone": "0254 019 273", "address": "via Giovanni Cena, 8", "latitude": 45.4668, "id": 200}, {"province": "MI", "city": "MILANO", "name": "RIPAMONTI", "zip": "20141 - Milano;20139 - Milano;20136 - Milano;20135 - Milano;20122 - Milano", "company": "ESSELUNGA", "phone": "0256 816 062", "address": "VIA CARLO DE ANGELI, 1", "id": 193}, {"province": "MI", "city": "ROZZANO", "name": "ROZZANO", "zip": "20142 - Milano", "company": "ESSELUNGA", "longitude": 9.1541309, "phone": "0257 503 568", "address": "VIA MANZONI, 5", "latitude": 45.3832366, "id": 285}, {"province": "MI", "city": "MILANO", "name": "RUBATTINO", "zip": "20134 - Milano;20133 - Milano;20131 - Milano;20129 - Milano", "company": "ESSELUNGA", "phone": "0221 597 394", "address": "VIA PITTERI, 84", "id": 209}, {"province": "MI", "city": "SEGRATE", "name": "SEGRATE", "zip": "20090 - Milano", "company": "ESSELUNGA", "longitude": 9.2948204, "phone": "0226 920 276", "address": "VIA OLGIA 4, ANG. S.S. CASSANESE", "latitude": 45.4907352, "id": 295}, {"province": "MI", "city": "MILANO", "name": "SOLARI", "zip": "20123 - Milano;20143 - Milano;20144 - Milano;20146 - Milano", "company": "ESSELUNGA", "longitude": 9.1905, "phone": "0247 710 084", "address": "VIA SOLARI, 29", "latitude": 45.4668, "id": 296}, {"province": "MI", "city": "MILANO", "name": "SUZZANI", "zip": "20162 - Milano;20159 - Milano;20126 - Milano;20125 - Milano", "company": "ESSELUNGA", "phone": "0266 114 468", "address": "VIALE SUZZANI, 221", "id": 141}, {"province": "MI", "city": "MILANO", "name": "UMBRIA", "zip": "20139 - Milano;20137 - Milano;20135 - Milano;20133 - Milano;20122 - Milano", "company": "ESSELUNGA", "longitude": 9.1905, "phone": "0254 121 268", "address": "VIALE UMBRIA, 28", "latitude": 45.4668, "id": 196}, {"province": "MI", "city": "MILANO", "name": "VIGLIANI", "zip": "20151 - Milano;20149 - Milano;20148 - Milano;20145 - Milano", "company": "ESSELUNGA", "phone": "02 435 837", "address": "VIALE VIGLIANI, 59", "id": 164}, {"province": "MI", "city": "MILANO", "name": "WASHINGTON", "zip": "20149 - Milano;20146 - Milano;20145 - Milano;20144 - Milano;20123 - Milano", "company": "ESSELUNGA", "longitude": 9.1905, "phone": "0248 102 631", "address": "VIA WASHINGTON,53", "latitude": 45.4668, "id": 168}, {"province": "MI", "city": "MILANO", "name": "ZARA", "zip": "20162 - Milano;20159 - Milano;20125 - Milano;20124 - Milano", "company": "ESSELUNGA", "longitude": 9.1905, "phone": "0269 007 877", "address": "VIALE ZARA, 123", "latitude": 45.4668, "id": 140}, {"province": "MI", "city": "ROZZANO", "name": "ROZZANO", "zip": "20089 - Rozzano", "company": "ESSELUNGA", "longitude": 9.1541309, "phone": "0257 503 568", "address": "VIA MANZONI, 5", "latitude": 45.3832366, "id": 284}, {"province": "MI", "city": "ROZZANO", "name": "ROZZANO", "zip": "20090 - Pieve Emanuele", "company": "ESSELUNGA", "longitude": 9.1541309, "phone": "0257 503 568", "address": "VIA MANZONI, 5", "latitude": 45.3832366, "id": 287}], "LT": [{"province": "LT", "city": " Latina", "coop": "PAC", "name": "Conad superstore", "opening": "Adesso Aperto", "company": "CONAD", "selected": "true", "hours": "08:00 - 21:00", "longitude": 12.9130695015, "order": "https://s2c.altuoservizio.conad.it/008038/", "website": "null.008038.html", "time": "1 min", "address": "Via Ezio 47, 04100  Latina", "latitude": 41.4716500556, "storetype": "", "cap": "04100", "data": "Conad superstore", "id": "008038", "distance": "0.91 km"}, {"province": "LT", "city": " Latina", "coop": "PAC", "name": "Conad", "opening": "Adesso Aperto", "company": "CONAD", "selected": "false", "hours": "08:00 - 21:00", "longitude": 12.9172158833, "order": "https://s2c.altuoservizio.conad.it/006232/", "website": "null.006232.html", "time": "2 min", "address": "Via Don Carlo Torello 51, 04100  Latina", "latitude": 41.4617990833, "storetype": "", "cap": "04100", "data": "Conad", "id": "006232", "distance": "1.3 km"}, {"province": "LT", "city": " Latina", "coop": "PAC", "name": "Conad superstore", "opening": "Adesso Aperto", "company": "CONAD", "selected": "false", "hours": "08:30 - 21:00", "longitude": 12.8892524, "order": "https://s2c.altuoservizio.conad.it/008449/", "website": "null.008449.html", "time": "2 min", "shipment": "https://s2c.altuoservizio.conad.it/008449/", "address": "Via Pier Luigi Nervi - C/o C. C. Le Torri 76, 04100  Latina", "latitude": 41.4608856, "storetype": "", "cap": "04100", "data": "Conad superstore", "id": "008449", "distance": "1.41 km"}, {"website": "null.008450.html", "distance": "2.09 km", "coop": "PAC", "province": "LT", "name": "Conad", "city": " Latina", "company": "CONAD", "selected": "false", "longitude": 12.8896058723, "id": "008450", "time": "4 min", "latitude": 41.4519492723, "storetype": "", "cap": "04100", "data": "Conad", "order": "https://s2c.altuoservizio.conad.it/008450/", "address": "Viale Picasso C/o Centro Commerciale Morbella Snc, 04100  Latina"}, {"website": "null.008926.html", "distance": "3.11 km", "coop": "PAC", "province": "LT", "name": "Conad", "city": " Latina", "company": "CONAD", "selected": "false", "longitude": 12.8725333605, "id": "008926", "time": "6 min", "latitude": 41.4521159465, "storetype": "", "cap": "04100", "data": "Conad", "order": "https://s2c.altuoservizio.conad.it/008926/", "address": "Viale Nicolo' Paganini 41-47, 04100  Latina"}, {"province": "LT", "city": " Sermoneta", "coop": "PAC", "name": "Conad superstore", "opening": "Adesso Aperto", "company": "CONAD", "selected": "false", "hours": "08:30 - 21:00", "longitude": 12.9500569962, "order": "https://s2c.altuoservizio.conad.it/008452/", "website": "null.008452.html", "time": "17 min", "address": "Via Le Pastine C/c Shopping Sermoneta 18, 04013  Sermoneta", "latitude": 41.5390853165, "storetype": "", "cap": "04013", "data": "Conad superstore", "id": "008452", "distance": "8.85 km"}, {"province": "LT", "city": " Pontinia", "coop": "PAC", "name": "Conad superstore", "opening": "Adesso Aperto", "company": "CONAD", "selected": "false", "hours": "08:00 - 21:00", "longitude": 13.043857, "order": "https://s2c.altuoservizio.conad.it/009480/", "website": "null.009480.html", "time": "26 min", "address": "Viale Italia 78, 04014  Pontinia", "latitude": 41.4107842, "storetype": "", "cap": "04014", "data": "Conad superstore", "id": "009480", "distance": "13.29 km"}, {"province": "LT", "city": " Sabaudia", "coop": "PAC", "name": "Conad superstore", "opening": "Adesso Aperto", "company": "CONAD", "selected": "false", "hours": "08:00 - 22:00", "longitude": 13.040223, "order": "https://s2c.altuoservizio.conad.it/009165/", "website": "null.009165.html", "time": "43 min", "shipment": "https://s2c.altuoservizio.conad.it/009165/", "address": "Via Del Parco Nazionale Snc, 04016  Sabaudia", "latitude": 41.300049, "storetype": "", "cap": "04016", "data": "Conad superstore", "id": "009165", "distance": "21.84 km"}, {"province": "LT", "city": " Sabaudia", "coop": "PAC", "name": "Conad", "opening": "Adesso Aperto", "company": "CONAD", "selected": "false", "hours": "08:00 - 14:00<br/>16:00 - 20:00", "longitude": 13.031811, "order": "https://s2c.altuoservizio.conad.it/005518/", "website": "null.005518.html", "time": "43 min", "shipment": "https://s2c.altuoservizio.conad.it/005518/", "address": "Via Duca Del Mare 15, 04016  Sabaudia", "latitude": 41.295395, "storetype": "", "cap": "04016", "data": "Conad", "id": "005518", "distance": "21.94 km"}], "CZ": [{"website": "null.008476.html", "distance": "18.03 km", "coop": "PAC", "province": "CZ", "name": "Conad", "city": " Sellia Marina", "company": "CONAD", "selected": "true", "longitude": 16.795677, "id": "008476", "shipment": "https://s2c.altuoservizio.conad.it/008476/", "time": "36 min", "latitude": 38.919138, "storetype": "", "cap": "88050", "data": "Conad", "order": "https://s2c.altuoservizio.conad.it/008476/", "address": "S.s. 106 Contrada La Rocca Snc, 88050  Sellia Marina"}, {"province": "CZ", "city": " Lamezia Terme", "coop": "PAC", "parafarmacia": "true", "name": "Conad", "distance": "22.3 km", "company": "CONAD", "selected": "false", "longitude": 16.331509687, "order": "https://s2c.altuoservizio.conad.it/008812/", "website": "null.008812.html", "time": "44 min", "shipment": "https://s2c.altuoservizio.conad.it/008812/", "address": "Via Del Progresso 374, 88046  Lamezia Terme", "latitude": 38.9317742642, "storetype": "", "cap": "88046", "data": "Conad", "id": "008812"}], "VR": [{"province": "VR", "city": "VERONA", "name": "VERONA", "zip": "37138 - Verona;37139 - Verona;37121 - Verona;37122 - Verona;37123 - Verona;37124 - Verona;37126 - Verona;37129 - Verona", "company": "ESSELUNGA", "longitude": 10.9924122, "phone": "045 563 630", "address": "CORSO MILANO, 100", "latitude": 45.4384958, "id": 400}], "PA": [{"province": "PA", "city": " Palermo", "coop": "SIC", "name": "Conad superstore", "opening": "Adesso Aperto", "company": "CONAD", "selected": "true", "hours": "08:30 - 20:30", "longitude": 13.3479445, "order": "https://s3c.altuoservizio.conad.it/006302/", "website": "null.006302.html", "time": "2 min", "shipment": "https://s3c.altuoservizio.conad.it/006302/", "address": "Corso Camillo Finocchiaro Aprile 112, 90138  Palermo", "latitude": 38.11833, "storetype": "", "cap": "90138", "data": "Conad superstore", "id": "006302", "distance": "1.22 km"}, {"province": "PA", "city": " Palermo", "coop": "SIC", "name": "Conad superstore", "opening": "Adesso Aperto", "company": "CONAD", "selected": "false", "hours": "08:00 - 20:15", "longitude": 13.32972, "order": "https://s3c.altuoservizio.conad.it/008659/", "website": "null.008659.html", "time": "8 min", "shipment": "https://s3c.altuoservizio.conad.it/008659/", "address": "Via Emanuele Oliveri Mandala' 38/40, 90100  Palermo", "latitude": 38.144332, "storetype": "", "cap": "90100", "data": "Conad superstore", "id": "008659", "distance": "4.23 km"}, {"province": "PA", "city": " Palermo", "coop": "SIC", "name": "Conad superstore", "opening": "Adesso Aperto", "company": "CONAD", "selected": "false", "hours": "08:30 - 20:15", "longitude": 13.307358, "order": "https://s3c.altuoservizio.conad.it/008673/", "website": "null.008673.html", "time": "10 min", "shipment": "https://s3c.altuoservizio.conad.it/008673/", "address": "Viale Michelangelo 2200, 90100  Palermo", "latitude": 38.131903, "storetype": "", "cap": "90100", "data": "Conad superstore", "id": "008673", "distance": "5.07 km"}, {"province": "PA", "city": " Palermo", "coop": "SIC", "name": "Conad superstore", "opening": "Adesso Aperto", "company": "CONAD", "selected": "false", "hours": "08:45 - 20:15", "longitude": 13.425973, "order": "https://s3c.altuoservizio.conad.it/007873/", "website": "null.007873.html", "time": "13 min", "shipment": "https://s3c.altuoservizio.conad.it/007873/", "address": "Corso Dei Mille 1660, 90100  Palermo", "latitude": 38.085215, "storetype": "", "cap": "90100", "data": "Conad superstore", "id": "007873", "distance": "6.58 km"}], "PG": [{"province": "PG", "city": " Perugia", "coop": "PAC", "name": "Conad superstore", "opening": "Adesso Aperto", "company": "CONAD", "selected": "true", "hours": "08:30 - 20:30", "longitude": 12.370599, "order": "https://s2c.altuoservizio.conad.it/009723/", "website": "null.009723.html", "time": "4 min", "shipment": "https://s2c.altuoservizio.conad.it/009723/", "address": "Via Settevalli 109, 06129  Perugia", "latitude": 43.097446, "storetype": "", "cap": "06129", "data": "Conad superstore", "id": "009723", "distance": "2.21 km"}, {"province": "PG", "city": " Perugia", "coop": "PAC", "name": "Conad superstore", "opening": "Adesso Aperto", "company": "CONAD", "selected": "false", "hours": "08:30 - 20:30", "longitude": 12.4321698, "order": "https://s2c.altuoservizio.conad.it/009015/", "website": "null.009015.html", "time": "8 min", "shipment": "https://s2c.altuoservizio.conad.it/009015/", "address": "Via Adriatica 33-43, 06135  Perugia", "latitude": 43.0887772, "storetype": "", "cap": "06135", "data": "Conad superstore", "id": "009015", "distance": "4.15 km"}, {"province": "PG", "city": " Perugia", "coop": "PAC", "name": "Conad", "opening": "Adesso Aperto", "company": "CONAD", "selected": "false", "hours": "07:30 - 20:00", "longitude": 12.34439206, "order": "https://s2c.altuoservizio.conad.it/003398/", "website": "null.003398.html", "time": "9 min", "shipment": "https://s2c.altuoservizio.conad.it/003398/", "address": "Via Tomaso Albinoni 6, 06132  Perugia", "latitude": 43.08235162, "storetype": "", "cap": "06132", "data": "Conad", "id": "003398", "distance": "4.92 km"}, {"province": "PG", "city": " Perugia", "coop": "PAC", "name": "Conad superstore", "opening": "Adesso Aperto", "company": "CONAD", "selected": "false", "hours": "08:30 - 20:00", "longitude": 12.338863606, "order": "https://s2c.altuoservizio.conad.it/008590/", "website": "null.008590.html", "time": "10 min", "shipment": "https://s2c.altuoservizio.conad.it/008590/", "address": "Via Pievaiola Snc, 06100  Perugia", "latitude": 43.0818188238, "storetype": "", "cap": "06100", "data": "Conad superstore", "id": "008590", "distance": "5.31 km"}, {"province": "PG", "city": " Bastia Umbra", "coop": "PAC", "name": "Conad", "opening": "Adesso Aperto", "company": "CONAD", "selected": "false", "hours": "08:00 - 13:30<br/>16:00 - 20:00", "longitude": 12.5372253, "order": "https://s2c.altuoservizio.conad.it/000146/", "website": "null.000146.html", "time": "25 min", "address": "Via Borgo XXV Aprile 54, 06083  Bastia Umbra", "latitude": 43.0700353, "storetype": "", "cap": "06083", "data": "Conad", "id": "000146", "distance": "12.72 km"}, {"province": "PG", "city": " Deruta", "coop": "PAC", "name": "Conad superstore", "opening": "Adesso Aperto", "company": "CONAD", "selected": "false", "hours": "08:30 - 20:00", "longitude": 12.427078, "order": "https://s2c.altuoservizio.conad.it/009584/", "website": "null.009584.html", "time": "25 min", "shipment": "https://s2c.altuoservizio.conad.it/009584/", "address": "Via Tiberina 44 B, 06053  Deruta", "latitude": 42.998243, "storetype": "", "cap": "06053", "data": "Conad superstore", "id": "009584", "distance": "12.85 km"}, {"province": "PG", "city": " Bastia Umbra", "coop": "PAC", "parafarmacia": "true", "name": "Conad superstore", "opening": "Adesso Aperto", "company": "CONAD", "selected": "false", "hours": "08:30 - 20:00", "longitude": 12.5584948767, "order": "https://s2c.altuoservizio.conad.it/008484/", "website": "null.008484.html", "time": "28 min", "address": "Piazza Del Tabacchificio 12-13, 06083  Bastia Umbra", "latitude": 43.0668523245, "storetype": "", "cap": "06083", "data": "Conad superstore", "id": "008484", "distance": "14.47 km"}, {"province": "PG", "city": " Bastia Umbra", "coop": "PAC", "name": "Conad superstore", "opening": "Adesso Aperto", "company": "CONAD", "selected": "false", "hours": "08:30 - 20:30", "longitude": 12.562831167, "order": "https://s2c.altuoservizio.conad.it/006240/", "website": "null.006240.html", "time": "30 min", "shipment": "https://s2c.altuoservizio.conad.it/006240/", "address": "Via Delle Querce Snc, 06083  Bastia Umbra", "latitude": 43.0549833936, "storetype": "", "cap": "06083", "data": "Conad superstore", "id": "006240", "distance": "15.29 km"}, {"province": "PG", "city": " Assisi", "coop": "PAC", "name": "Conad superstore", "opening": "Adesso Aperto", "company": "CONAD", "selected": "false", "hours": "08:30 - 20:30", "longitude": 12.5849498222, "order": "https://s2c.altuoservizio.conad.it/008841/", "website": "null.008841.html", "time": "33 min", "shipment": "https://s2c.altuoservizio.conad.it/008841/", "address": "Via Fratelli Matteucci Snc, 06081  Assisi", "latitude": 43.0557203705, "storetype": "", "cap": "06081", "data": "Conad superstore", "id": "008841", "distance": "16.91 km"}], "RM": [{"province": "RM", "city": " Roma", "coop": "CDT", "name": "Conad city", "opening": "Adesso Aperto", "company": "CONAD", "selected": "true", "hours": "07:30 - 22:00", "longitude": 12.5020290166, "order": "https://s1a.altuoservizio.conad.it/conadshopstorefront/conad/it/store-finder/?codiceAnacan=008010", "website": "null.008010.html", "time": "1 min", "address": "Piazza Dell'indipendenza 28, 00185  Roma", "latitude": 41.9046301721, "storetype": "", "cap": "00185", "data": "Conad city", "id": "008010", "distance": "0.51 km"}, {"province": "RM", "city": " Roma", "coop": "CDT", "name": "Conad", "extra": "https://s1b.altuoservizio.conad.it/conadshopstorefront/conad/it/store-finder/?codiceAnacan=008012&extra=true", "company": "CONAD", "selected": "false", "hours": "08:00 - 21:30", "longitude": 12.5022311881, "order": "https://s1a.altuoservizio.conad.it/conadshopstorefront/conad/it/store-finder/?codiceAnacan=008012", "website": "null.008012.html", "time": "2 min", "address": "Via Buonarroti 41852, 00185  Roma", "latitude": 41.8935364299, "storetype": "", "cap": "00185", "data": "Conad", "id": "008012", "opening": "Adesso Aperto", "distance": "1.14 km"}, {"province": "RM", "city": " Roma", "coop": "PAC", "name": "Conad city", "opening": "Adesso Aperto", "company": "CONAD", "selected": "false", "hours": "8:00  - 20:00", "longitude": 12.5029913, "order": "https://s2c.altuoservizio.conad.it/009786/", "website": "null.009786.html", "time": "3 min", "shipment": "https://s2c.altuoservizio.conad.it/009786/", "address": "Viale Regina Margherita 130, 00198  Roma", "latitude": 41.9156548, "storetype": "", "cap": "00198", "data": "Conad city", "id": "009786", "distance": "1.53 km"}, {"province": "RM", "city": " Roma", "coop": "CDT", "name": "Conad city", "opening": "Adesso Aperto", "company": "CONAD", "selected": "false", "hours": "07:30 - 21:00", "longitude": 12.5176691, "order": "https://s1a.altuoservizio.conad.it/conadshopstorefront/conad/it/store-finder/?codiceAnacan=008013", "website": "null.008013.html", "time": "3 min", "address": "Via Dei Liguri 9/19, 00185  Roma", "latitude": 41.8955605, "storetype": "", "cap": "00185", "data": "Conad city", "id": "008013", "distance": "1.94 km"}, {"province": "RM", "city": " Roma", "coop": "CDT", "name": "Conad city", "opening": "Adesso Aperto", "company": "CONAD", "selected": "false", "hours": "8:00  - 20:00", "longitude": 12.479046, "order": "https://s1a.altuoservizio.conad.it/conadshopstorefront/conad/it/store-finder/?codiceAnacan=009936", "website": "null.009936.html", "time": "5 min", "address": "Via Archimede Snc, 00197  Roma", "latitude": 41.923304, "storetype": "", "cap": "00197", "data": "Conad city", "id": "009936", "distance": "2.7 km"}, {"province": "RM", "city": " Roma", "coop": "CDT", "name": "Conad", "extra": "https://s1b.altuoservizio.conad.it/conadshopstorefront/conad/it/store-finder/?codiceAnacan=008764&extra=true", "company": "CONAD", "selected": "false", "hours": "08:30 - 20:00", "longitude": 12.471918, "order": "https://s1a.altuoservizio.conad.it/conadshopstorefront/conad/it/store-finder/?codiceAnacan=008764", "website": "null.008764.html", "time": "5 min", "address": "Viale Trastevere 62, 00153  Roma", "latitude": 41.886379, "storetype": "", "cap": "00153", "data": "Conad", "id": "008764", "opening": "Adesso Aperto", "distance": "2.73 km"}, {"province": "RM", "city": " Roma", "coop": "PAC", "name": "Conad", "opening": "Adesso Aperto", "company": "CONAD", "selected": "false", "hours": "09:00 - 20:00", "longitude": 12.5147169549, "order": "https://s2c.altuoservizio.conad.it/008640/", "website": "null.008640.html", "time": "5 min", "shipment": "https://s2c.altuoservizio.conad.it/008640/", "address": "Corso Trieste 200, 00100  Roma", "latitude": 41.9237206271, "storetype": "", "cap": "00100", "data": "Conad", "id": "008640", "distance": "2.78 km"}, {"province": "RM", "city": " Roma", "coop": "CDT", "name": "Conad", "extra": "https://s1b.altuoservizio.conad.it/conadshopstorefront/conad/it/store-finder/?codiceAnacan=008008&extra=true", "company": "CONAD", "selected": "false", "hours": "07:30 - 21:00", "longitude": 12.5180801936, "order": "https://s1a.altuoservizio.conad.it/conadshopstorefront/conad/it/store-finder/?codiceAnacan=008008", "website": "null.008008.html", "time": "5 min", "address": "Via Matera 5, 00182  Roma", "latitude": 41.8830139563, "storetype": "", "cap": "00182", "data": "Conad", "id": "008008", "opening": "Adesso Aperto", "distance": "2.84 km"}, {"province": "RM", "city": " Roma", "coop": "PAC", "name": "Conad", "opening": "Adesso Aperto", "company": "CONAD", "selected": "false", "hours": "08:30 - 21:00", "longitude": 12.5224046689, "order": "https://s2c.altuoservizio.conad.it/005973/", "website": "null.005973.html", "time": "5 min", "shipment": "https://s2c.altuoservizio.conad.it/005973/", "address": "Via Ignazio Giorgi 53/a, 00162  Roma", "latitude": 41.9199805381, "storetype": "", "cap": "00162", "data": "Conad", "id": "005973", "distance": "2.88 km"}, {"province": "RM", "city": " Roma", "coop": "PAC", "name": "Conad", "opening": "Adesso Aperto", "company": "CONAD", "selected": "false", "hours": "08:00 - 20:00", "longitude": 12.5221409, "order": "https://s2c.altuoservizio.conad.it/005974/", "website": "null.005974.html", "time": "6 min", "shipment": "https://s2c.altuoservizio.conad.it/005974/", "address": "Via Taranto 210, 00182  Roma", "latitude": 41.8819642, "storetype": "", "cap": "00182", "data": "Conad", "id": "005974", "distance": "3.15 km"}, {"website": "null.005126.html", "distance": "3.5 km", "coop": "PAC", "province": "RM", "name": "Conad", "city": " Roma", "company": "CONAD", "selected": "false", "longitude": 12.4781852, "id": "005126", "shipment": "https://s2c.altuoservizio.conad.it/005126/", "time": "7 min", "latitude": 41.8744059, "storetype": "", "cap": "00154", "data": "Conad", "order": "https://s2c.altuoservizio.conad.it/005126/", "address": "Piazza Vittorio Bottego 47, 00154  Roma"}, {"province": "RM", "city": " Roma", "coop": "CDT", "name": "Conad city", "opening": "Adesso Aperto", "company": "CONAD", "selected": "false", "hours": "08:00 - 21:30", "longitude": 12.5212434, "order": "https://s1a.altuoservizio.conad.it/conadshopstorefront/conad/it/store-finder/?codiceAnacan=008004", "website": "null.008004.html", "time": "7 min", "address": "Via Migiurtinia 55, 00199  Roma", "latitude": 41.9305993, "storetype": "", "cap": "00199", "data": "Conad city", "id": "008004", "distance": "3.72 km"}, {"province": "RM", "city": " Roma", "coop": "PAC", "name": "Conad superstore", "opening": "Adesso Aperto", "company": "CONAD", "selected": "false", "hours": "08:30 - 20:30", "longitude": 12.5298620481, "order": "https://s2c.altuoservizio.conad.it/006450/", "website": "null.006450.html", "time": "7 min", "shipment": "https://s2c.altuoservizio.conad.it/006450/", "address": "Via Nocera Umbra 146, 00181  Roma", "latitude": 41.8778509135, "storetype": "", "cap": "00181", "data": "Conad superstore", "id": "006450", "distance": "3.92 km"}, {"province": "RM", "city": " Roma", "coop": "CDT", "name": "Conad", "extra": "https://s1b.altuoservizio.conad.it/conadshopstorefront/conad/it/store-finder/?codiceAnacan=008001&extra=true", "company": "CONAD", "selected": "false", "hours": "08:00 - 21:30", "longitude": 12.5201319158, "order": "https://s1a.altuoservizio.conad.it/conadshopstorefront/conad/it/store-finder/?codiceAnacan=008001", "website": "null.008001.html", "time": "7 min", "address": "Viale Somalia 275, 00199  Roma", "latitude": 41.9339146559, "storetype": "", "cap": "00199", "data": "Conad", "id": "008001", "opening": "Adesso Aperto", "distance": "3.98 km"}, {"province": "RM", "city": " Roma", "coop": "CDT", "name": "Conad city", "extra": "https://s1b.altuoservizio.conad.it/conadshopstorefront/conad/it/store-finder/?codiceAnacan=008006&extra=true", "company": "CONAD", "selected": "false", "hours": "07:30 - 21:00", "longitude": 12.4473383, "order": "https://s1a.altuoservizio.conad.it/conadshopstorefront/conad/it/store-finder/?codiceAnacan=008006", "website": "null.008006.html", "time": "8 min", "address": "Via Angelo Emo 37, 00136  Roma", "latitude": 41.9047338, "storetype": "", "cap": "00136", "data": "Conad city", "id": "008006", "opening": "Adesso Aperto", "distance": "4.06 km"}, {"province": "RM", "city": " Roma", "coop": "CDT", "name": "Conad city", "opening": "Adesso Aperto", "company": "CONAD", "selected": "false", "hours": "08:00 - 21:00", "longitude": 12.445652, "order": "https://s1a.altuoservizio.conad.it/conadshopstorefront/conad/it/store-finder/?codiceAnacan=008014", "website": "null.008014.html", "time": "8 min", "address": "Via Sebastiano Ziani 12/14, 00136  Roma", "latitude": 41.9079086, "storetype": "", "cap": "00136", "data": "Conad city", "id": "008014", "distance": "4.24 km"}, {"province": "RM", "city": " Roma", "coop": "PAC", "name": "Conad", "opening": "Adesso Aperto", "company": "CONAD", "selected": "false", "hours": "8:00  - 20:30", "longitude": 12.4686068, "order": "https://s2c.altuoservizio.conad.it/009884/", "website": "null.009884.html", "time": "9 min", "shipment": "https://s2c.altuoservizio.conad.it/009884/", "address": "Viale Guglielmo Marconi 176, 00146  Roma", "latitude": 41.8656383, "storetype": "", "cap": "00146", "data": "Conad", "id": "009884", "distance": "4.73 km"}, {"province": "RM", "city": " Roma", "coop": "CDT", "name": "Conad", "extra": "https://s1b.altuoservizio.conad.it/conadshopstorefront/conad/it/store-finder/?codiceAnacan=008655&extra=true", "company": "CONAD", "selected": "false", "hours": "08:00 - 21:30", "longitude": 12.4711375854, "order": "https://s1a.altuoservizio.conad.it/conadshopstorefront/conad/it/store-finder/?codiceAnacan=008655", "website": "null.008655.html", "time": "9 min", "address": "Corso Di Francia Snc, 00191  Roma", "latitude": 41.9417411918, "storetype": "", "cap": "00191", "data": "Conad", "id": "008655", "opening": "Adesso Aperto", "distance": "4.81 km"}, {"province": "RM", "city": " Roma", "coop": "CDT", "name": "Conad", "opening": "Adesso Aperto", "company": "CONAD", "selected": "false", "hours": "8:00  - 20:00", "longitude": 12.4412375, "order": "https://s1a.altuoservizio.conad.it/conadshopstorefront/conad/it/store-finder/?codiceAnacan=009872", "website": "null.009872.html", "time": "9 min", "address": "Via Orlando De Tommaso Snc, 00136  Roma", "latitude": 41.9208507, "storetype": "", "cap": "00136", "data": "Conad", "id": "009872", "distance": "4.99 km"}, {"province": "RM", "city": " Roma", "coop": "CDT", "name": "Conad superstore", "extra": "https://s1b.altuoservizio.conad.it/conadshopstorefront/conad/it/store-finder/?codiceAnacan=008016&extra=true", "company": "CONAD", "selected": "false", "hours": "08:00 - 21:00", "longitude": 12.4869206362, "order": "https://s1a.altuoservizio.conad.it/conadshopstorefront/conad/it/store-finder/?codiceAnacan=008016", "website": "null.008016.html", "time": "10 min", "address": "Via Tito 15, 00145  Roma", "latitude": 41.8541570753, "storetype": "", "cap": "00145", "data": "Conad superstore", "id": "008016", "opening": "Adesso Aperto", "distance": "5.46 km"}, {"website": "null.009937.html", "distance": "5.59 km", "coop": "CDT", "province": "RM", "name": "Conad", "city": " Roma", "company": "CONAD", "selected": "false", "longitude": 12.466839, "id": "009937", "time": "11 min", "latitude": 41.947997, "storetype": "", "cap": "00191", "data": "Conad", "order": "https://s1a.altuoservizio.conad.it/conadshopstorefront/conad/it/store-finder/?codiceAnacan=009937", "address": "Via Cesare Ferrero Di Cambiano 56, 00191  Roma"}, {"province": "RM", "city": " Roma", "coop": "CDT", "name": "Conad", "extra": "https://s1b.altuoservizio.conad.it/conadshopstorefront/conad/it/store-finder/?codiceAnacan=008009&extra=true", "company": "CONAD", "selected": "false", "hours": "07:30 - 21:00", "longitude": 12.4774917834, "order": "https://s1a.altuoservizio.conad.it/conadshopstorefront/conad/it/store-finder/?codiceAnacan=008009", "website": "null.008009.html", "time": "11 min", "address": "Via Ostiense 361, 00146  Roma", "latitude": 41.853643619, "storetype": "", "cap": "00146", "data": "Conad", "id": "008009", "opening": "Adesso Aperto", "distance": "5.68 km"}, {"province": "RM", "city": " Roma", "coop": "PAC", "name": "Conad", "opening": "Adesso Aperto", "company": "CONAD", "selected": "false", "hours": "08:30 - 20:00", "longitude": 12.4918423221, "order": "https://s2c.altuoservizio.conad.it/006571/", "website": "null.006571.html", "time": "11 min", "shipment": "https://s2c.altuoservizio.conad.it/006571/", "address": "Via Attilio Ambrosini 183, 00147  Roma", "latitude": 41.8505164795, "storetype": "", "cap": "00147", "data": "Conad", "id": "006571", "distance": "5.83 km"}, {"province": "RM", "city": " Roma", "coop": "CDT", "name": "Conad", "opening": "Adesso Aperto", "company": "CONAD", "selected": "false", "hours": "8:00  - 20:00", "longitude": 12.4255918, "order": "https://s1a.altuoservizio.conad.it/conadshopstorefront/conad/it/store-finder/?codiceAnacan=009870", "website": "null.009870.html", "time": "11 min", "address": "Piazza Dei Giureconsulti Snc, 00167  Roma", "latitude": 41.9015015, "storetype": "", "cap": "00167", "data": "Conad", "id": "009870", "distance": "5.86 km"}, {"province": "RM", "city": " Roma", "coop": "CDT", "name": "Conad", "extra": "https://s1b.altuoservizio.conad.it/conadshopstorefront/conad/it/store-finder/?codiceAnacan=007996&extra=true", "company": "CONAD", "selected": "false", "hours": "07:30 - 20:00", "longitude": 12.5531607214, "order": "https://s1a.altuoservizio.conad.it/conadshopstorefront/conad/it/store-finder/?codiceAnacan=007996", "website": "null.007996.html", "time": "11 min", "address": "Viale Kant 289, 00156  Roma", "latitude": 41.9358204073, "storetype": "", "cap": "00156", "data": "Conad", "id": "007996", "opening": "Adesso Aperto", "distance": "5.97 km"}, {"province": "RM", "city": " Roma", "coop": "PAC", "name": "Conad superstore", "opening": "Adesso Aperto", "company": "CONAD", "selected": "false", "hours": "08:00 - 20:00", "longitude": 12.523222, "order": "https://s2c.altuoservizio.conad.it/008646/", "website": "null.008646.html", "time": "12 min", "shipment": "https://s2c.altuoservizio.conad.it/008646/", "address": "Via Monte Cervialto 135, 00138  Roma", "latitude": 41.954353, "storetype": "", "cap": "00138", "data": "Conad superstore", "id": "008646", "distance": "6.15 km"}, {"province": "RM", "city": " Roma", "coop": "CDT", "name": "Conad", "opening": "Adesso Aperto", "company": "CONAD", "selected": "false", "hours": "07:30 - 20:00", "longitude": 12.5519200321, "order": "https://s1a.altuoservizio.conad.it/conadshopstorefront/conad/it/store-finder/?codiceAnacan=004648", "website": "null.004648.html", "time": "12 min", "address": "Via Marco Celio Rufo 22, 00175  Roma", "latitude": 41.8648188142, "storetype": "", "cap": "00175", "data": "Conad", "id": "004648", "distance": "6.24 km"}, {"province": "RM", "city": " Roma", "coop": "CDT", "name": "Conad", "extra": "https://s1b.altuoservizio.conad.it/conadshopstorefront/conad/it/store-finder/?codiceAnacan=008017&extra=true", "company": "CONAD", "selected": "false", "hours": "08:00 - 21:00", "longitude": 12.5244053453, "order": "https://s1a.altuoservizio.conad.it/conadshopstorefront/conad/it/store-finder/?codiceAnacan=008017", "website": "null.008017.html", "time": "13 min", "address": "Piazza Ottaviano Vimercati 55, 00139  Roma", "latitude": 41.9590502652, "storetype": "", "cap": "00139", "data": "Conad", "id": "008017", "opening": "Adesso Aperto", "distance": "6.67 km"}, {"website": "null.005972.html", "distance": "6.73 km", "coop": "PAC", "province": "RM", "name": "Conad", "city": " Roma", "company": "CONAD", "selected": "false", "longitude": 12.5547093619, "id": "005972", "shipment": "https://s2c.altuoservizio.conad.it/005972/", "time": "13 min", "latitude": 41.9449581067, "storetype": "", "cap": "00137", "data": "Conad", "order": "https://s2c.altuoservizio.conad.it/005972/", "address": "Via Francesco D'ovidio 95, 00137  Roma"}, {"province": "RM", "city": " Roma", "coop": "PAC", "name": "Conad superstore", "opening": "Adesso Aperto", "company": "CONAD", "selected": "false", "hours": "08:30 - 20:30", "longitude": 12.441836223, "order": "https://s2c.altuoservizio.conad.it/008633/", "website": "null.008633.html", "time": "13 min", "shipment": "https://s2c.altuoservizio.conad.it/008633/", "address": "Via Isacco Newton 51, 00100  Roma", "latitude": 41.8579459889, "storetype": "", "cap": "00100", "data": "Conad superstore", "id": "008633", "distance": "6.73 km"}, {"province": "RM", "city": " Roma", "coop": "PAC", "name": "Conad superstore", "opening": "Adesso Aperto", "company": "CONAD", "selected": "false", "hours": "07:30 - 21:00", "longitude": 12.4577219412, "order": "https://s2c.altuoservizio.conad.it/008793/", "website": "null.008793.html", "time": "13 min", "shipment": "https://s2c.altuoservizio.conad.it/008793/", "address": "Via Della Magliana 224, 00146  Roma", "latitude": 41.848719609, "storetype": "", "cap": "00146", "data": "Conad superstore", "id": "008793", "distance": "6.81 km"}, {"website": "null.005127.html", "distance": "6.9 km", "coop": "PAC", "province": "RM", "name": "Conad", "city": " Roma", "company": "CONAD", "selected": "false", "longitude": 12.5787483, "id": "005127", "shipment": "https://s2c.altuoservizio.conad.it/005127/", "time": "13 min", "latitude": 41.8935079, "storetype": "", "cap": "00171", "data": "Conad", "order": "https://s2c.altuoservizio.conad.it/005127/", "address": "Via Conversano Ang.via Trani Snc, 00171  Roma"}, {"province": "RM", "city": " Roma", "coop": "PAC", "name": "Conad", "opening": "Adesso Aperto", "company": "CONAD", "selected": "false", "hours": "8:00  - 20:30", "longitude": 12.557457, "order": "https://s2c.altuoservizio.conad.it/009865/", "website": "null.009865.html", "time": "13 min", "shipment": "https://s2c.altuoservizio.conad.it/009865/", "address": "Via Ponzio Cominio 19, 00175  Roma", "latitude": 41.8603511, "storetype": "", "cap": "00175", "data": "Conad", "id": "009865", "distance": "6.92 km"}, {"province": "RM", "city": " Roma", "coop": "PAC", "name": "Conad", "opening": "Adesso Aperto", "company": "CONAD", "selected": "false", "hours": "8:00  - 20:00", "longitude": 12.4238434429, "order": "https://s2c.altuoservizio.conad.it/008869/", "website": "null.008869.html", "time": "14 min", "shipment": "https://s2c.altuoservizio.conad.it/008869/", "address": "Via Cardinale Di York 2, 00148  Roma", "latitude": 41.8653993294, "storetype": "", "cap": "00148", "data": "Conad", "id": "008869", "distance": "7.3 km"}, {"province": "RM", "city": " Roma", "coop": "PAC", "name": "Conad", "opening": "Adesso Aperto", "company": "CONAD", "selected": "false", "hours": "08:00 - 21:00", "longitude": 12.561409, "order": "https://s2c.altuoservizio.conad.it/005123/", "website": "null.005123.html", "time": "14 min", "shipment": "https://s2c.altuoservizio.conad.it/005123/", "address": "Via Tuscolana 881, 00174  Roma", "latitude": 41.85751, "storetype": "", "cap": "00174", "data": "Conad", "id": "005123", "distance": "7.37 km"}, {"province": "RM", "city": " Roma", "coop": "PAC", "name": "Conad", "opening": "Adesso Aperto", "company": "CONAD", "selected": "false", "hours": "08:30 - 20:00", "longitude": 12.4148863927, "order": "https://s2c.altuoservizio.conad.it/008873/", "website": "null.008873.html", "time": "14 min", "shipment": "https://s2c.altuoservizio.conad.it/008873/", "address": "Via Della Pisana 278, 00100  Roma", "latitude": 41.8761838787, "storetype": "", "cap": "00100", "data": "Conad", "id": "008873", "distance": "7.37 km"}, {"province": "RM", "city": " Roma", "coop": "PAC", "name": "Conad superstore", "opening": "Adesso Aperto", "company": "CONAD", "selected": "false", "hours": "08:30 - 20:00", "longitude": 12.4351017829, "order": "https://s2c.altuoservizio.conad.it/004298/", "website": "null.004298.html", "time": "15 min", "shipment": "https://s2c.altuoservizio.conad.it/004298/", "address": "Via Del Trullo 100, 00148  Roma", "latitude": 41.849927106, "storetype": "", "cap": "00148", "data": "Conad superstore", "id": "004298", "distance": "7.77 km"}, {"province": "RM", "city": " Roma", "coop": "CDT", "parafarmacia": "true", "name": "Conad superstore", "extra": "https://s1b.altuoservizio.conad.it/conadshopstorefront/conad/it/store-finder/?codiceAnacan=006893&extra=true", "company": "CONAD", "selected": "false", "hours": "08:30 - 20:30", "longitude": 12.4171168, "order": "https://s1a.altuoservizio.conad.it/conadshopstorefront/conad/it/store-finder/?codiceAnacan=006893", "website": "null.006893.html", "time": "17 min", "address": "Via Dei Sampieri 92, 00148  Roma", "latitude": 41.8532001, "storetype": "", "cap": "00148", "data": "Conad superstore", "id": "006893", "opening": "Adesso Aperto", "distance": "8.57 km"}, {"province": "RM", "city": " Roma", "coop": "CDT", "name": "Conad city", "extra": "https://s1b.altuoservizio.conad.it/conadshopstorefront/conad/it/store-finder/?codiceAnacan=009629&extra=true", "company": "CONAD", "selected": "false", "hours": "08:00 - 21:00", "longitude": 12.390274, "order": "https://s1a.altuoservizio.conad.it/conadshopstorefront/conad/it/store-finder/?codiceAnacan=009629", "website": "null.009629.html", "time": "17 min", "address": "Via Cornelia 154, 00100  Roma", "latitude": 41.902718, "storetype": "", "cap": "00100", "data": "Conad city", "id": "009629", "opening": "Adesso Aperto", "distance": "8.78 km"}, {"province": "RM", "city": " Roma", "coop": "CDT", "name": "Conad city", "opening": "Adesso Aperto", "company": "CONAD", "selected": "false", "hours": "8:00  - 20:00", "longitude": 12.4363117, "order": "https://s1a.altuoservizio.conad.it/conadshopstorefront/conad/it/store-finder/?codiceAnacan=009871", "website": "null.009871.html", "time": "17 min", "address": "Via Cassia 865, 00189  Roma", "latitude": 41.9692484, "storetype": "", "cap": "00189", "data": "Conad city", "id": "009871", "distance": "8.91 km"}, {"website": "null.001163.html", "distance": "9.29 km", "coop": "PAC", "province": "RM", "name": "Conad", "city": " Roma", "company": "CONAD", "selected": "false", "longitude": 12.42597473, "id": "001163", "shipment": "https://s2c.altuoservizio.conad.it/001163/", "time": "18 min", "latitude": 41.837789, "storetype": "", "cap": "00148", "data": "Conad", "order": "https://s2c.altuoservizio.conad.it/001163/", "address": "Largo Casale Degli Inglesi 21, 00148  Roma"}, {"province": "RM", "city": " Roma", "coop": "CDT", "parafarmacia": "true", "name": "Conad superstore", "extra": "https://s1b.altuoservizio.conad.it/conadshopstorefront/conad/it/store-finder/?codiceAnacan=006887&extra=true", "company": "CONAD", "selected": "false", "hours": "08:00 - 21:00", "longitude": 12.381893, "order": "https://s1a.altuoservizio.conad.it/conadshopstorefront/conad/it/store-finder/?codiceAnacan=006887", "website": "null.006887.html", "time": "20 min", "address": "Via Arola 55, 00166  Roma", "latitude": 41.931625, "storetype": "", "cap": "00166", "data": "Conad superstore", "id": "006887", "opening": "Adesso Aperto", "distance": "10.0 km"}, {"website": "null.003890.html", "distance": "10.15 km", "coop": "PAC", "province": "RM", "name": "Conad", "city": " Roma", "company": "CONAD", "selected": "false", "longitude": 12.6018403843, "id": "003890", "shipment": "https://s2c.altuoservizio.conad.it/003890/", "time": "20 min", "latitude": 41.9494320313, "storetype": "", "cap": "00131", "data": "Conad", "order": "https://s2c.altuoservizio.conad.it/003890/", "address": "Via Poppea Sabina 19, 00131  Roma"}, {"province": "RM", "city": " Roma", "coop": "CDT", "name": "Conad city", "opening": "Adesso Aperto", "company": "CONAD", "selected": "false", "hours": "08:00 - 20:00", "longitude": 12.404248165, "order": "https://s1a.altuoservizio.conad.it/conadshopstorefront/conad/it/store-finder/?codiceAnacan=005381", "website": "null.005381.html", "time": "20 min", "address": "Via Ipogeo Degli Ottavi 61/79, 00135  Roma", "latitude": 41.965165576, "storetype": "", "cap": "00135", "data": "Conad city", "id": "005381", "distance": "10.31 km"}, {"province": "RM", "city": " Roma", "coop": "CDT", "name": "Conad", "opening": "Adesso Aperto", "company": "CONAD", "selected": "false", "hours": "08:00 - 21:30", "longitude": 12.5182933, "order": "https://s1a.altuoservizio.conad.it/conadshopstorefront/conad/it/store-finder/?codiceAnacan=005840", "website": "null.005840.html", "time": "25 min", "address": "Via Castel Di Leva 261, 00134  Roma", "latitude": 41.7871133, "storetype": "", "cap": "00134", "data": "Conad", "id": "005840", "distance": "12.99 km"}, {"province": "RM", "city": "Snc", "coop": "CDT", "name": "Conad", "extra": "https://s1b.altuoservizio.conad.it/conadshopstorefront/conad/it/store-finder/?codiceAnacan=007997&extra=true", "company": "CONAD", "selected": "false", "hours": "07:30 - 21:30", "longitude": 12.6166845, "order": "https://s1a.altuoservizio.conad.it/conadshopstorefront/conad/it/store-finder/?codiceAnacan=007997", "website": "null.007997.html", "time": "26 min", "address": "Via Nomentana Km. 16,1 Snc, 00012  Guidonia Montecelio", "latitude": 41.9817844, "storetype": "", "cap": "Snc", "data": "Conad", "id": "007997", "opening": "Adesso Aperto", "distance": "13.28 km"}, {"website": "null.008216.html", "distance": "14.0 km", "coop": "PAC", "province": "RM", "name": "Conad", "city": " Roma", "company": "CONAD", "selected": "false", "longitude": 12.608773, "id": "008216", "shipment": "https://s2c.altuoservizio.conad.it/008216/", "time": "28 min", "latitude": 41.808842, "storetype": "", "cap": "00140", "data": "Conad", "order": "https://s2c.altuoservizio.conad.it/008216/", "address": "Via Delle Vigne Morena 21-23, 00140  Roma"}, {"province": "RM", "city": " Roma", "coop": "PAC", "name": "Conad", "opening": "Adesso Aperto", "company": "CONAD", "selected": "false", "hours": "8:00  - 22:00", "longitude": 12.6265548, "order": "https://s2c.altuoservizio.conad.it/009740/", "website": "null.009740.html", "time": "29 min", "shipment": "https://s2c.altuoservizio.conad.it/009740/", "address": "Via Anagnina 471, 00118  Roma", "latitude": 41.8105408, "storetype": "", "cap": "00118", "data": "Conad", "id": "009740", "distance": "14.89 km"}, {"province": "RM", "city": " Roma", "coop": "CDT", "name": "Conad", "extra": "https://s1b.altuoservizio.conad.it/conadshopstorefront/conad/it/store-finder/?codiceAnacan=008221&extra=true", "company": "CONAD", "selected": "false", "hours": "08:00 - 20:00", "longitude": 12.3785257, "order": "https://s1a.altuoservizio.conad.it/conadshopstorefront/conad/it/store-finder/?codiceAnacan=008221", "website": "null.008221.html", "time": "32 min", "address": "Via G. Belardinelli Snc, 00123  Roma", "latitude": 42.0191193, "storetype": "", "cap": "00123", "data": "Conad", "id": "008221", "opening": "Adesso Aperto", "distance": "16.2 km"}, {"province": "RM", "city": " Fonte Nuova", "coop": "PAC", "name": "Conad", "opening": "Adesso Aperto", "company": "CONAD", "selected": "false", "hours": "08:30 - 20:30", "longitude": 12.667474, "order": "https://s2c.altuoservizio.conad.it/009607/", "website": "null.009607.html", "time": "35 min", "shipment": "https://s2c.altuoservizio.conad.it/009607/", "address": "Via Delle Molette 234, 00013  Fonte Nuova", "latitude": 42.001195, "storetype": "", "cap": "00013", "data": "Conad", "id": "009607", "distance": "17.89 km"}, {"province": "RM", "city": " Monterotondo", "coop": "CDT", "name": "Conad superstore", "extra": "https://s1b.altuoservizio.conad.it/conadshopstorefront/conad/it/store-finder/?codiceAnacan=006525&extra=true", "company": "CONAD", "selected": "false", "hours": "08:30 - 20:30", "longitude": 12.5827804, "order": "https://s1a.altuoservizio.conad.it/conadshopstorefront/conad/it/store-finder/?codiceAnacan=006525", "website": "null.006525.html", "time": "37 min", "address": "Via Salaria 223, 00015  Monterotondo", "latitude": 42.0578323, "storetype": "", "cap": "00015", "data": "Conad superstore", "id": "006525", "opening": "Adesso Aperto", "distance": "18.67 km"}, {"province": "RM", "city": " Mentana", "coop": "CDT", "name": "Conad", "opening": "Adesso Aperto", "company": "CONAD", "selected": "false", "hours": "08:00 - 20:00", "longitude": 12.6408269, "order": "https://s1a.altuoservizio.conad.it/conadshopstorefront/conad/it/store-finder/?codiceAnacan=005122", "website": "null.005122.html", "time": "38 min", "address": "Via Della Rimessa 5, 00013  Mentana", "latitude": 42.0368489, "storetype": "", "cap": "00013", "data": "Conad", "id": "005122", "distance": "19.11 km"}, {"province": "RM", "city": " Roma", "coop": "PAC", "name": "Conad", "opening": "Adesso Aperto", "company": "CONAD", "selected": "false", "hours": "08:30 - 20:00", "longitude": 12.352521, "order": "https://s2c.altuoservizio.conad.it/006233/", "website": "null.006233.html", "time": "41 min", "shipment": "https://s2c.altuoservizio.conad.it/006233/", "address": "Via Di Casal Palocco 124, 00100  Roma", "latitude": 41.750436, "storetype": "", "cap": "00100", "data": "Conad", "id": "006233", "distance": "20.72 km"}, {"website": "null.008870.html", "distance": "21.26 km", "coop": "PAC", "province": "RM", "name": "Conad", "city": " Roma", "company": "CONAD", "selected": "false", "longitude": 12.3692270288, "id": "008870", "shipment": "https://s2c.altuoservizio.conad.it/008870/", "time": "42 min", "latitude": 41.7367344481, "storetype": "", "cap": "00100", "data": "Conad", "order": "https://s2c.altuoservizio.conad.it/008870/", "address": "Via Pinzolo 2-4-6, 00100  Roma"}, {"province": "RM", "city": " Albano Laziale", "coop": "CDT", "name": "Conad", "opening": "Adesso Aperto", "company": "CONAD", "selected": "false", "hours": "08:30 - 21:00", "longitude": 12.61744008, "order": "https://s1a.altuoservizio.conad.it/conadshopstorefront/conad/it/store-finder/?codiceAnacan=002871", "website": "null.002871.html", "time": "44 min", "address": "Via Del Mare 1, 00041  Albano Laziale", "latitude": 41.72495558, "storetype": "", "cap": "00041", "data": "Conad", "id": "002871", "distance": "22.18 km"}, {"province": "RM", "city": " Tivoli", "coop": "PAC", "name": "Conad superstore", "opening": "Adesso Aperto", "company": "CONAD", "selected": "false", "hours": "08:00 - 21:00", "longitude": 12.773403, "order": "https://s2c.altuoservizio.conad.it/009556/", "website": "null.009556.html", "time": "47 min", "shipment": "https://s2c.altuoservizio.conad.it/009556/", "address": "Via Nazionale Tiburtina 1, 00019  Tivoli", "latitude": 41.957759, "storetype": "", "cap": "00019", "data": "Conad superstore", "id": "009556", "distance": "23.73 km"}, {"province": "RM", "city": " Mentana", "coop": "PAC", "name": "Conad", "opening": "Adesso Aperto", "company": "CONAD", "selected": "false", "hours": "08:30 - 20:00", "longitude": 12.702518, "order": "https://s2c.altuoservizio.conad.it/003386/", "website": "null.003386.html", "time": "48 min", "shipment": "https://s2c.altuoservizio.conad.it/003386/", "address": "Via Palombarese 1135, 00013  Mentana", "latitude": 42.057045, "storetype": "", "cap": "00013", "data": "Conad", "id": "003386", "distance": "24.19 km"}], "CS": [{"website": "null.007135.html", "distance": "0.85 km", "coop": "PAC", "province": "CS", "name": "Conad", "city": " Cosenza", "company": "CONAD", "selected": "true", "longitude": 16.246742, "id": "007135", "shipment": "https://s2c.altuoservizio.conad.it/007135/", "time": "1 min", "latitude": 39.303719, "storetype": "", "cap": "87100", "data": "Conad", "order": "https://s2c.altuoservizio.conad.it/007135/", "address": "Via Pasquale Rossi 33/a, 87100  Cosenza"}, {"province": "CS", "city": " Cosenza", "coop": "PAC", "name": "Conad", "opening": "Adesso Aperto", "company": "CONAD", "selected": "false", "hours": "08:00 - 13:30<br/>16:30 - 20:00", "longitude": 16.2515675, "order": "https://s2c.altuoservizio.conad.it/008357/", "website": "null.008357.html", "time": "1 min", "shipment": "https://s2c.altuoservizio.conad.it/008357/", "address": "Corso Luigi Fera 70, 87100  Cosenza", "latitude": 39.3058445, "storetype": "", "cap": "87100", "data": "Conad", "id": "008357", "distance": "0.86 km"}, {"province": "CS", "city": " Cosenza", "coop": "PAC", "name": "Conad", "opening": "Adesso Aperto", "company": "CONAD", "selected": "false", "hours": "08:00 - 20:30", "longitude": 16.2475076, "order": "https://s2c.altuoservizio.conad.it/009144/", "website": "null.009144.html", "time": "1 min", "shipment": "https://s2c.altuoservizio.conad.it/009144/", "address": "Viale Della Repubblica 77, 87100  Cosenza", "latitude": 39.2920745, "storetype": "", "cap": "87100", "data": "Conad", "id": "009144", "distance": "0.87 km"}, {"website": "null.007813.html", "distance": "0.97 km", "coop": "PAC", "province": "CS", "name": "Conad", "city": " Cosenza", "company": "CONAD", "selected": "false", "longitude": 16.256706, "id": "007813", "shipment": "https://s2c.altuoservizio.conad.it/007813/", "time": "1 min", "latitude": 39.306691, "storetype": "", "cap": "87100", "data": "Conad", "order": "https://s2c.altuoservizio.conad.it/007813/", "address": "Via Popilia 128/v, 87100  Cosenza"}, {"website": "null.008446.html", "distance": "1.48 km", "coop": "PAC", "province": "CS", "name": "Conad", "city": " Cosenza", "company": "CONAD", "selected": "false", "longitude": 16.2529505, "id": "008446", "shipment": "https://s2c.altuoservizio.conad.it/008446/", "time": "2 min", "latitude": 39.3115709, "storetype": "", "cap": "87100", "data": "Conad", "order": "https://s2c.altuoservizio.conad.it/008446/", "address": "Viale Mancini Snc, 87100  Cosenza"}, {"website": "null.008447.html", "distance": "2.65 km", "coop": "PAC", "province": "CS", "name": "Conad", "city": " Cosenza", "company": "CONAD", "selected": "false", "longitude": 16.2242767, "id": "008447", "shipment": "https://s2c.altuoservizio.conad.it/008447/", "time": "5 min", "latitude": 39.3053352, "storetype": "", "cap": "87100", "data": "Conad", "order": "https://s2c.altuoservizio.conad.it/008447/", "address": "Via Metaponto 7, 87100  Cosenza"}, {"website": "null.009921.html", "distance": "2.97 km", "coop": "PAC", "province": "CS", "name": "Conad", "city": " Cosenza", "company": "CONAD", "selected": "false", "longitude": 16.256196, "id": "009921", "shipment": "https://s2c.altuoservizio.conad.it/009921/", "time": "5 min", "latitude": 39.324861, "storetype": "", "cap": "87100", "data": "Conad", "order": "https://s2c.altuoservizio.conad.it/009921/", "address": "Viale Crati Ss 107 Snc, 87100  Cosenza"}, {"province": "CS", "city": " Rende", "coop": "PAC", "parafarmacia": "true", "name": "Conad", "opening": "Adesso Aperto", "company": "CONAD", "selected": "false", "hours": "08:30 - 20:30", "longitude": 16.2453251, "order": "https://s2c.altuoservizio.conad.it/006286/", "website": "null.006286.html", "time": "9 min", "shipment": "https://s2c.altuoservizio.conad.it/006286/", "address": "Via Giuseppe Verdi 40, 87036  Rende", "latitude": 39.3398539, "storetype": "", "cap": "87036", "data": "Conad", "id": "006286", "distance": "4.68 km"}, {"province": "CS", "city": " Montalto Uffugo", "coop": "PAC", "name": "Conad", "opening": "Adesso Aperto", "company": "CONAD", "selected": "false", "hours": "08:00 - 20:30", "longitude": 16.237077, "order": "https://s2c.altuoservizio.conad.it/009028/", "website": "null.009028.html", "time": "20 min", "shipment": "https://s2c.altuoservizio.conad.it/009028/", "address": "Via Trieste Snc, 87046  Montalto Uffugo", "latitude": 39.388343, "storetype": "", "cap": "87046", "data": "Conad", "id": "009028", "distance": "10.12 km"}, {"province": "CS", "city": " Montalto Uffugo", "coop": "PAC", "name": "Conad", "opening": "Adesso Aperto", "company": "CONAD", "selected": "false", "hours": "08:00 - 20:30", "longitude": 16.2380194478, "order": "https://s2c.altuoservizio.conad.it/007417/", "website": "null.007417.html", "time": "28 min", "shipment": "https://s2c.altuoservizio.conad.it/007417/", "address": "Corso Italia 1, 87040  Montalto Uffugo", "latitude": 39.4268440409, "storetype": "", "cap": "87040", "data": "Conad", "id": "007417", "distance": "14.37 km"}, {"province": "CS", "city": " Montalto Uffugo", "coop": "PAC", "name": "Conad", "opening": "Adesso Aperto", "company": "CONAD", "selected": "false", "hours": "08:00 - 20:30", "longitude": 16.1553242, "order": "https://s2c.altuoservizio.conad.it/006998/", "website": "null.006998.html", "time": "28 min", "shipment": "https://s2c.altuoservizio.conad.it/006998/", "address": "Via Aldo Moro 9, 87046  Montalto Uffugo", "latitude": 39.4030048, "storetype": "", "cap": "87046", "data": "Conad", "id": "006998", "distance": "14.4 km"}, {"province": "CS", "city": "42", "coop": "PAC", "name": "Conad", "opening": "Adesso Aperto", "company": "CONAD", "selected": "false", "hours": "09:00 - 14:00<br/>16:00 - 20:00", "longitude": 16.2255096, "order": "https://s2c.altuoservizio.conad.it/005236/", "website": "null.005236.html", "time": "29 min", "shipment": "https://s2c.altuoservizio.conad.it/005236/", "address": "Via A. Manzoni, 42, 87040  Montalto Uffugo", "latitude": 39.4297456, "storetype": "", "cap": "42", "data": "Conad", "id": "005236", "distance": "14.82 km"}, {"province": "CS", "city": " Torano Castello", "coop": "PAC", "name": "Conad", "opening": "Adesso Aperto", "company": "CONAD", "selected": "false", "hours": "08:00 - 13:30<br/>16:30 - 20:30", "longitude": 16.2125261407, "order": "https://s2c.altuoservizio.conad.it/006284/", "website": "null.006284.html", "time": "47 min", "shipment": "https://s2c.altuoservizio.conad.it/006284/", "address": "Contrada Macchia Tavola Snc, 87010  Torano Castello", "latitude": 39.5083186124, "storetype": "", "cap": "87010", "data": "Conad", "id": "006284", "distance": "23.63 km"}], "FI": [{"province": "FI", "city": "FIRENZE", "name": "CANOVA", "zip": "50143 - Firenze;50142 - Firenze", "company": "ESSELUNGA", "longitude": 11.2555757, "phone": "0557 331 896", "address": "VIA CANOVA, 164/8", "latitude": 43.7698712, "id": 247}, {"province": "FI", "city": "FIRENZE", "name": "DE AMICIS", "zip": "50131 - Firenze;50132 - Firenze;50133 - Firenze;50135 - Firenze;50136 - Firenze;50137 - Firenze", "company": "ESSELUNGA", "longitude": 11.2555757, "phone": "055 604 442", "address": "VIALE DE AMICIS 89/B", "latitude": 43.7698712, "id": 328}, {"province": "FI", "city": "FIRENZE", "name": "GALLIANO", "zip": "50144 - Firenze;50127 - Firenze", "company": "ESSELUNGA", "longitude": 11.2555757, "phone": "055 362 121", "address": "VIA GALLIANO, 136", "latitude": 43.7698712, "id": 245}, {"province": "FI", "city": "FIRENZE", "name": "GALLUZZO", "zip": "50124 - Firenze;50125 - Firenze", "company": "ESSELUNGA", "longitude": 11.2555757, "phone": "0552 322 545", "address": "VIA SENESE, 194/G", "latitude": 43.7698712, "id": 292}, {"province": "FI", "city": "FIRENZE", "name": "GIGNORO", "zip": "50137 - Firenze;50136 - Firenze;50135 - Firenze;50126 - Firenze", "company": "ESSELUNGA", "longitude": 11.2555757, "phone": "055 671 407", "address": "VIA DEL GIGNORO (ANG. VIA CALASSO, 19)", "latitude": 43.7698712, "id": 252}, {"province": "FI", "city": "FIRENZE", "name": "MASACCIO", "zip": "50136 - Firenze;50133 - Firenze;50132 - Firenze;50131 - Firenze;50129 - Firenze;50122 - Firenze;50121 - Firenze", "company": "ESSELUNGA", "longitude": 11.2555757, "phone": "055 573 348", "address": "VIA MASACCIO, 274/276", "latitude": 43.7698712, "id": 253}, {"province": "FI", "city": "FIRENZE", "name": "MILANESI", "zip": "50141 - Firenze;50139 - Firenze;50134 - Firenze;50129 - Firenze", "company": "ESSELUNGA", "longitude": 11.2555757, "phone": "055 489 265", "address": "VIA MILANESI, 32/34", "latitude": 43.7698712, "id": 250}, {"province": "FI", "city": "FIRENZE", "name": "NOVOLI", "zip": "50145 - Firenze;50144 - Firenze;50141 - Firenze;50127 - Firenze", "company": "ESSELUNGA", "longitude": 11.2555757, "phone": "055 433 908", "address": "VIA DI NOVOLI, 61", "latitude": 43.7698712, "id": 243}, {"province": "FI", "city": "FIRENZE", "name": "PISANA", "zip": "50143 - Firenze;50125 - Firenze;50124 - Firenze;50123 - Firenze;50122 - Firenze", "company": "ESSELUNGA", "longitude": 11.2555757, "phone": "055 706 556", "address": "VIA PISANA, 130/132", "latitude": 43.7698712, "id": 246}, {"province": "FI", "city": " Firenze", "coop": "CDT", "name": "Conad city", "extra": "https://s1b.altuoservizio.conad.it/conadshopstorefront/conad/it/store-finder/?codiceAnacan=008635&extra=true", "company": "CONAD", "selected": "true", "hours": "08:00 - 21:00", "longitude": 11.2632884095, "order": "https://s1a.altuoservizio.conad.it/conadshopstorefront/conad/it/store-finder/?codiceAnacan=008635", "website": "null.008635.html", "time": "1 min", "address": "Via Pietrapiana 42, 50121  Firenze", "latitude": 43.7711649549, "storetype": "", "cap": "50121", "data": "Conad city", "id": "008635", "opening": "Adesso Aperto", "distance": "0.63 km"}, {"province": "FI", "city": " Firenze", "coop": "CDT", "name": "Sapori & dintorni conad", "opening": "Adesso Aperto", "company": "CONAD", "selected": "false", "hours": "07:30 - 21:00", "longitude": 11.2464108, "order": "https://s1a.altuoservizio.conad.it/conadshopstorefront/conad/it/store-finder/?codiceAnacan=009413", "website": "null.009413.html", "time": "2 min", "address": "Via Luigi Alamanni 2, 50123  Firenze", "latitude": 43.7768243, "storetype": "", "cap": "50123", "data": "Sapori & dintorni conad", "id": "009413", "distance": "1.11 km"}, {"province": "FI", "city": " Firenze", "coop": "CDT", "name": "Conad city", "extra": "https://s1b.altuoservizio.conad.it/conadshopstorefront/conad/it/store-finder/?codiceAnacan=003802&extra=true", "company": "CONAD", "selected": "false", "hours": "07:30 - 20:30", "longitude": 11.2768285442, "order": "https://s1a.altuoservizio.conad.it/conadshopstorefront/conad/it/store-finder/?codiceAnacan=003802", "website": "null.003802.html", "time": "3 min", "address": "Via Scipione Ammirato 94, 50136  Firenze", "latitude": 43.7703178078, "storetype": "", "cap": "50136", "data": "Conad city", "id": "003802", "opening": "Adesso Aperto", "distance": "1.69 km"}, {"province": "FI", "city": " Firenze", "coop": "CDT", "name": "Conad city", "opening": "Adesso Aperto", "company": "CONAD", "selected": "false", "hours": "07:45 - 20:30", "longitude": 11.23706956, "order": "https://s1a.altuoservizio.conad.it/conadshopstorefront/conad/it/store-finder/?codiceAnacan=000822", "website": "null.000822.html", "time": "6 min", "address": "Via Giovan Filippo Mariti 132, 50136  Firenze", "latitude": 43.79343417, "storetype": "", "cap": "50136", "data": "Conad city", "id": "000822", "distance": "3.05 km"}, {"province": "FI", "city": " Firenze", "coop": "CDT", "name": "Conad", "opening": "Adesso Aperto", "company": "CONAD", "selected": "false", "hours": "08:00 - 20:30", "longitude": 11.240086304, "order": "https://s1a.altuoservizio.conad.it/conadshopstorefront/conad/it/store-finder/?codiceAnacan=008636", "website": "null.008636.html", "time": "6 min", "address": "Piazza Dalmazia 12/14, 50141  Firenze", "latitude": 43.7962847762, "storetype": "", "cap": "50141", "data": "Conad", "id": "008636", "distance": "3.23 km"}, {"province": "FI", "city": " Firenze", "coop": "CDT", "name": "Conad city", "extra": "https://s1b.altuoservizio.conad.it/conadshopstorefront/conad/it/store-finder/?codiceAnacan=006324&extra=true", "company": "CONAD", "selected": "false", "hours": "08:00 - 20:00", "longitude": 11.2962392359, "order": "https://s1a.altuoservizio.conad.it/conadshopstorefront/conad/it/store-finder/?codiceAnacan=006324", "website": "null.006324.html", "time": "6 min", "address": "Via Ferdinando Martini 14, 50135  Firenze", "latitude": 43.7744863348, "storetype": "", "cap": "50135", "data": "Conad city", "id": "006324", "opening": "Adesso Aperto", "distance": "3.29 km"}, {"province": "FI", "city": " Firenze", "coop": "CDT", "name": "Conad city", "extra": "https://s1b.altuoservizio.conad.it/conadshopstorefront/conad/it/store-finder/?codiceAnacan=003395&extra=true", "company": "CONAD", "selected": "false", "hours": "08:00 - 20:30", "longitude": 11.29566268, "order": "https://s1a.altuoservizio.conad.it/conadshopstorefront/conad/it/store-finder/?codiceAnacan=003395", "website": "null.003395.html", "time": "6 min", "shipment": "https://s1c.altuoservizio.conad.it/conadshopstorefront/conad/it/store-finder/?codiceAnacan=003395", "address": "Via Kyoto 24/30, 50126  Firenze", "latitude": 43.75995487, "storetype": "", "cap": "50126", "data": "Conad city", "id": "003395", "opening": "Adesso Aperto", "distance": "3.37 km"}, {"province": "FI", "city": " Firenze", "coop": "CDT", "name": "Conad city", "extra": "https://s1b.altuoservizio.conad.it/conadshopstorefront/conad/it/store-finder/?codiceAnacan=003391&extra=true", "company": "CONAD", "selected": "false", "hours": "08:00 - 20:30", "longitude": 11.30503458, "order": "https://s1a.altuoservizio.conad.it/conadshopstorefront/conad/it/store-finder/?codiceAnacan=003391", "website": "null.003391.html", "time": "7 min", "shipment": "https://s1c.altuoservizio.conad.it/conadshopstorefront/conad/it/store-finder/?codiceAnacan=003391", "address": "Via Rocca Tedalda 49, 50136  Firenze", "latitude": 43.76804861, "storetype": "", "cap": "50136", "data": "Conad city", "id": "003391", "opening": "Adesso Aperto", "distance": "3.96 km"}, {"province": "FI", "city": " Firenze", "coop": "CDT", "name": "Conad superstore", "extra": "https://s1b.altuoservizio.conad.it/conadshopstorefront/conad/it/store-finder/?codiceAnacan=006507&extra=true", "company": "CONAD", "selected": "false", "hours": "08:00 - 21:00", "longitude": 11.1944302025, "order": "https://s1a.altuoservizio.conad.it/conadshopstorefront/conad/it/store-finder/?codiceAnacan=006507", "website": "null.006507.html", "time": "11 min", "address": "Via Pistoiese Ang. Via Del Pesciolino Snc, 50145  Firenze", "latitude": 43.794610415, "storetype": "", "cap": "50145", "data": "Conad superstore", "id": "006507", "opening": "Adesso Aperto", "distance": "5.66 km"}, {"province": "FI", "city": " Scandicci", "coop": "CDT", "name": "Conad city", "opening": "Adesso Aperto", "company": "CONAD", "selected": "false", "hours": "07:30 - 20:00", "longitude": 11.18343913, "order": "https://s1a.altuoservizio.conad.it/conadshopstorefront/conad/it/store-finder/?codiceAnacan=000843", "website": "null.000843.html", "time": "12 min", "address": "Via S.bartolo In Tuto 35, 50018  Scandicci", "latitude": 43.7545452, "storetype": "", "cap": "50018", "data": "Conad city", "id": "000843", "distance": "6.05 km"}, {"province": "FI", "city": " Calenzano", "coop": "CDT", "name": "Conad", "extra": "https://s1b.altuoservizio.conad.it/conadshopstorefront/conad/it/store-finder/?codiceAnacan=009005&extra=true", "company": "CONAD", "selected": "false", "hours": "07:30 - 20:30", "longitude": 11.1628287, "order": "https://s1a.altuoservizio.conad.it/conadshopstorefront/conad/it/store-finder/?codiceAnacan=009005", "website": "null.009005.html", "time": "25 min", "address": "Via Don Minzoni 13, 50041  Calenzano", "latitude": 43.8607588, "storetype": "", "cap": "50041", "data": "Conad", "id": "009005", "opening": "Adesso Aperto", "distance": "12.59 km"}, {"province": "FI", "city": " Prato", "coop": "CDT", "name": "Conad", "extra": "https://s1b.altuoservizio.conad.it/conadshopstorefront/conad/it/store-finder/?codiceAnacan=000816&extra=true", "company": "CONAD", "selected": "false", "hours": "08:00 - 21:00", "longitude": 11.11434846, "order": "https://s1a.altuoservizio.conad.it/conadshopstorefront/conad/it/store-finder/?codiceAnacan=000816", "website": "null.000816.html", "time": "30 min", "address": "Via Giuseppe Catani 28/b, 59100  Prato", "latitude": 43.86399613, "storetype": "", "cap": "59100", "data": "Conad", "id": "000816", "opening": "Adesso Aperto", "distance": "15.47 km"}, {"province": "FI", "city": " Prato", "coop": "CDT", "name": "Conad", "extra": "https://s1b.altuoservizio.conad.it/conadshopstorefront/conad/it/store-finder/?codiceAnacan=003800&extra=true", "company": "CONAD", "selected": "false", "hours": "08:00 - 21:00", "longitude": 11.074632109, "order": "https://s1a.altuoservizio.conad.it/conadshopstorefront/conad/it/store-finder/?codiceAnacan=003800", "website": "null.003800.html", "time": "33 min", "address": "Via Roma Snc, 59100  Prato", "latitude": 43.8475679411, "storetype": "", "cap": "59100", "data": "Conad", "id": "003800", "opening": "Adesso Aperto", "distance": "16.94 km"}, {"province": "FI", "city": " Prato", "coop": "CDT", "name": "Conad city", "opening": "Adesso Aperto", "company": "CONAD", "selected": "false", "hours": "07:30 - 20:00", "longitude": 11.0716768174, "order": "https://s1a.altuoservizio.conad.it/conadshopstorefront/conad/it/store-finder/?codiceAnacan=006502", "website": "null.006502.html", "time": "39 min", "address": "Via Luigi Gaspare Spontini 29/31, 59100  Prato", "latitude": 43.8870141521, "storetype": "", "cap": "59100", "data": "Conad city", "id": "006502", "distance": "19.72 km"}, {"province": "FI", "city": " Prato", "coop": "CDT", "name": "Conad", "opening": "Adesso Aperto", "company": "CONAD", "selected": "false", "hours": "07:30 - 20:30", "longitude": 11.09184404, "order": "https://s1a.altuoservizio.conad.it/conadshopstorefront/conad/it/store-finder/?codiceAnacan=003392", "website": "null.003392.html", "time": "40 min", "address": "Via VII Marzo 15, 59100  Prato", "latitude": 43.90798678, "storetype": "", "cap": "59100", "data": "Conad", "id": "003392", "distance": "20.25 km"}, {"province": "FI", "city": " Prato", "coop": "CDT", "parafarmacia": "true", "name": "Conad superstore", "extra": "https://s1b.altuoservizio.conad.it/conadshopstorefront/conad/it/store-finder/?codiceAnacan=004839&extra=true", "company": "CONAD", "selected": "false", "hours": "07:30 - 21:00", "longitude": 11.0708709341, "order": "https://s1a.altuoservizio.conad.it/conadshopstorefront/conad/it/store-finder/?codiceAnacan=004839", "website": "null.004839.html", "time": "41 min", "address": "Via Anna Kuliscioff 3, 59100  Prato", "latitude": 43.8986587851, "storetype": "", "cap": "59100", "data": "Conad superstore", "id": "004839", "opening": "Adesso Aperto", "distance": "20.65 km"}, {"province": "FI", "city": " Borgo San Lorenzo", "coop": "CDT", "name": "Conad superstore", "extra": "https://s1b.altuoservizio.conad.it/conadshopstorefront/conad/it/store-finder/?codiceAnacan=006827&extra=true", "company": "CONAD", "selected": "false", "hours": "08:00 - 21:00", "longitude": 11.3722466212, "order": "https://s1a.altuoservizio.conad.it/conadshopstorefront/conad/it/store-finder/?codiceAnacan=006827", "website": "null.006827.html", "time": "45 min", "address": "Viale Giovanni XXIII 47, 50032  Borgo San Lorenzo", "latitude": 43.9568523691, "storetype": "", "cap": "50032", "data": "Conad superstore", "id": "006827", "opening": "Adesso Aperto", "distance": "22.83 km"}, {"province": "FI", "city": " Quarrata", "coop": "CDT", "name": "Conad city", "opening": "Adesso Aperto", "company": "CONAD", "selected": "false", "hours": "07:30 - 20:00", "longitude": 10.97899621, "order": "https://s1a.altuoservizio.conad.it/conadshopstorefront/conad/it/store-finder/?codiceAnacan=000832", "website": "null.000832.html", "time": "47 min", "address": "Via Roma 39, 51039  Quarrata", "latitude": 43.84770709, "storetype": "", "cap": "51039", "data": "Conad city", "id": "000832", "distance": "23.86 km"}, {"province": "FI", "city": " Figline E Incisa Valdarno", "coop": "CDT", "name": "Conad city", "extra": "https://s1b.altuoservizio.conad.it/conadshopstorefront/conad/it/store-finder/?codiceAnacan=009000&extra=true", "company": "CONAD", "selected": "false", "hours": "08:00 - 21:00", "longitude": 11.4718616, "order": "https://s1a.altuoservizio.conad.it/conadshopstorefront/conad/it/store-finder/?codiceAnacan=009000", "website": "null.009000.html", "time": "47 min", "address": "Via Roma 1/9, 50063  Figline E Incisa Valdarno", "latitude": 43.620885, "storetype": "", "cap": "50063", "data": "Conad city", "id": "009000", "opening": "Adesso Aperto", "distance": "23.99 km"}], "SA": [{"province": "SA", "city": " Salerno", "coop": "PAC", "name": "Conad superstore", "opening": "Adesso Aperto", "company": "CONAD", "selected": "true", "hours": "09:00 - 21:00", "longitude": 14.776266, "order": "https://s2c.altuoservizio.conad.it/009418/", "website": "null.009418.html", "time": "4 min", "shipment": "https://s2c.altuoservizio.conad.it/009418/", "address": "Via Dei Greci 5, 84135  Salerno", "latitude": 40.6997364, "storetype": "", "cap": "84135", "data": "Conad superstore", "id": "009418", "distance": "2.04 km"}, {"province": "SA", "city": " Cava De' Tirreni", "coop": "PAC", "parafarmacia": "true", "name": "Conad superstore", "opening": "Adesso Aperto", "company": "CONAD", "selected": "false", "hours": "07:30 - 21:00", "longitude": 14.7016076296, "order": "https://s2c.altuoservizio.conad.it/008434/", "website": "null.008434.html", "time": "13 min", "shipment": "https://s2c.altuoservizio.conad.it/008434/", "address": "Viale R. Romano 32, 84013  Cava De' Tirreni", "latitude": 40.7122456258, "storetype": "", "cap": "84013", "data": "Conad superstore", "id": "008434", "distance": "6.51 km"}, {"website": "null.008222.html", "distance": "7.34 km", "coop": "PAC", "province": "SA", "name": "Conad", "city": " Baronissi", "company": "CONAD", "selected": "false", "longitude": 14.76981855, "id": "008222", "shipment": "https://s2c.altuoservizio.conad.it/008222/", "time": "14 min", "latitude": 40.74837794, "storetype": "", "cap": "84081", "data": "Conad", "order": "https://s2c.altuoservizio.conad.it/008222/", "address": "Corso Garibaldi 209, 84081  Baronissi"}, {"province": "SA", "city": " Salerno", "coop": "PAC", "name": "Conad superstore", "opening": "Adesso Aperto", "company": "CONAD", "selected": "false", "hours": "08:00 - 21:00", "longitude": 14.8513349053, "order": "https://s2c.altuoservizio.conad.it/008319/", "website": "null.008319.html", "time": "15 min", "shipment": "https://s2c.altuoservizio.conad.it/008319/", "address": "Via Delle Calabrie 4, 84131  Salerno", "latitude": 40.6490392238, "storetype": "", "cap": "84131", "data": "Conad superstore", "id": "008319", "distance": "7.95 km"}, {"province": "SA", "city": " Fisciano", "coop": "PAC", "name": "Conad city", "opening": "Chiuso", "company": "CONAD", "selected": "false", "hours": "08:00 - 13:30<br/>16:30 - 20:30", "longitude": 14.7828302812, "order": "https://s2c.altuoservizio.conad.it/006487/", "website": "null.006487.html", "time": "18 min", "shipment": "https://s2c.altuoservizio.conad.it/006487/", "address": "Via Del Centenario 67, 84080  Fisciano", "latitude": 40.7638623706, "storetype": "", "cap": "84080", "data": "Conad city", "id": "006487", "distance": "9.14 km"}, {"website": "null.008169.html", "distance": "9.69 km", "coop": "PAC", "province": "SA", "name": "Conad", "city": " Pontecagnano Faiano", "company": "CONAD", "selected": "false", "longitude": 14.8717055, "id": "008169", "shipment": "https://s2c.altuoservizio.conad.it/008169/", "time": "19 min", "latitude": 40.6447757, "storetype": "", "cap": "84098", "data": "Conad", "order": "https://s2c.altuoservizio.conad.it/008169/", "address": "Via Giacomo Budetti 82, 84098  Pontecagnano Faiano"}, {"province": "SA", "city": " Pontecagnano Faiano", "coop": "PAC", "name": "Conad superstore", "opening": "Adesso Aperto", "company": "CONAD", "selected": "false", "hours": "08:00 - 20:30", "longitude": 14.8773275223, "order": "https://s2c.altuoservizio.conad.it/008213/", "website": "null.008213.html", "time": "20 min", "shipment": "https://s2c.altuoservizio.conad.it/008213/", "address": "Via Lucania 13, 84098  Pontecagnano Faiano", "latitude": 40.6398637221, "storetype": "", "cap": "84098", "data": "Conad superstore", "id": "008213", "distance": "10.36 km"}, {"province": "SA", "city": " Nocera Inferiore", "coop": "PAC", "name": "Conad superstore", "opening": "Adesso Aperto", "company": "CONAD", "selected": "false", "hours": "07:30 - 21:00", "longitude": 14.6461796947, "order": "https://s2c.altuoservizio.conad.it/007176/", "website": "null.007176.html", "time": "24 min", "shipment": "https://s2c.altuoservizio.conad.it/007176/", "address": "Via G.b.castaldo 51, 84014  Nocera Inferiore", "latitude": 40.7461284427, "storetype": "", "cap": "84014", "data": "Conad superstore", "id": "007176", "distance": "12.48 km"}, {"province": "SA", "city": " Pagani", "coop": "PAC", "name": "Conad superstore", "opening": "Adesso Aperto", "company": "CONAD", "selected": "false", "hours": "09:00 - 21:00", "longitude": 14.5993077569, "order": "https://s2c.altuoservizio.conad.it/006451/", "website": "null.006451.html", "time": "32 min", "shipment": "https://s2c.altuoservizio.conad.it/006451/", "address": "Via De Gasperi 340, 84016  Pagani", "latitude": 40.7483669976, "storetype": "", "cap": "84016", "data": "Conad superstore", "id": "006451", "distance": "16.01 km"}, {"province": "SA", "city": " Battipaglia", "coop": "PAC", "name": "Conad superstore", "opening": "Adesso Aperto", "company": "CONAD", "selected": "false", "hours": "08:00 - 20:30", "longitude": 14.9759040729, "order": "https://s2c.altuoservizio.conad.it/008219/", "website": "null.008219.html", "time": "38 min", "shipment": "https://s2c.altuoservizio.conad.it/008219/", "address": "Via Stella 124, 84091  Battipaglia", "latitude": 40.6083083162, "storetype": "", "cap": "84091", "data": "Conad superstore", "id": "008219", "distance": "19.38 km"}, {"website": "null.009331.html", "distance": "19.48 km", "coop": "PAC", "province": "SA", "name": "Conad", "city": " Sarno", "company": "CONAD", "selected": "false", "longitude": 14.6174026, "id": "009331", "shipment": "https://s2c.altuoservizio.conad.it/009331/", "time": "38 min", "latitude": 40.8152664, "storetype": "", "cap": "84087", "data": "Conad", "order": "https://s2c.altuoservizio.conad.it/009331/", "address": "Piazza Garibaldi Snc, 84087  Sarno"}, {"province": "SA", "city": " Sant'antonio Abate", "coop": "PAC", "name": "Conad", "opening": "Adesso Aperto", "company": "CONAD", "selected": "false", "hours": "08:00 - 13:30<br/>16:00 - 20:30", "longitude": 14.5358963, "order": "https://s2c.altuoservizio.conad.it/002417/", "website": "null.002417.html", "time": "40 min", "shipment": "https://s2c.altuoservizio.conad.it/002417/", "address": "Via Scafati 338, 80057  Sant'antonio Abate", "latitude": 40.7348252, "storetype": "", "cap": "80057", "data": "Conad", "id": "002417", "distance": "20.43 km"}, {"province": "SA", "city": " Pompei", "coop": "PAC", "parafarmacia": "true", "name": "Conad superstore", "opening": "Adesso Aperto", "company": "CONAD", "selected": "false", "hours": "09:00 - 22:00", "longitude": 14.5031838, "order": "https://s2c.altuoservizio.conad.it/008591/", "website": "null.008591.html", "time": "46 min", "shipment": "https://s2c.altuoservizio.conad.it/008591/", "address": "Via Macello 22, 80045  Pompei", "latitude": 40.741392, "storetype": "", "cap": "80045", "data": "Conad superstore", "id": "008591", "distance": "23.28 km"}], "PI": [{"province": "PI", "city": " Pisa", "coop": "CDT", "name": "Conad city", "opening": "Adesso Aperto", "company": "CONAD", "selected": "true", "hours": "08:00 - 20:30", "longitude": 10.3994495, "order": "https://s1a.altuoservizio.conad.it/conadshopstorefront/conad/it/store-finder/?codiceAnacan=009203", "website": "null.009203.html", "time": "2 min", "address": "Via San Giuseppe Cottolengo 5, 56125  Pisa", "latitude": 43.7121014, "storetype": "", "cap": "56125", "data": "Conad city", "id": "009203", "distance": "1.21 km"}, {"province": "PI", "city": " Pisa", "coop": "CDT", "name": "Conad city", "opening": "Adesso Aperto", "company": "CONAD", "selected": "false", "hours": "08:00 - 20:00", "longitude": 10.37123397, "order": "https://s1a.altuoservizio.conad.it/conadshopstorefront/conad/it/store-finder/?codiceAnacan=000795", "website": "null.000795.html", "time": "5 min", "address": "Piazza Giovanni XXIII Snc, 56122  Pisa", "latitude": 43.71064502, "storetype": "", "cap": "56122", "data": "Conad city", "id": "000795", "distance": "2.8 km"}, {"website": "null.003699.html", "extra": "https://s1b.altuoservizio.conad.it/conadshopstorefront/conad/it/store-finder/?codiceAnacan=003699&extra=true", "storetype": "", "id": "003699", "city": " San Giuliano Terme", "selected": "false", "shipment": "https://s1c.altuoservizio.conad.it/conadshopstorefront/conad/it/store-finder/?codiceAnacan=003699", "latitude": 43.7414772, "province": "PI", "coop": "CDT", "opening": "Adesso Aperto", "company": "CONAD", "parafarmacia": "true", "address": "Via Pietrasantina 31, 56017  San Giuliano Terme", "data": "Conad superstore", "hours": "08:00 - 21:00", "name": "Conad superstore", "cap": "56017", "longitude": 10.3751532, "time": "5 min", "order": "https://s1a.altuoservizio.conad.it/conadshopstorefront/conad/it/store-finder/?codiceAnacan=003699", "distance": "2.97 km"}, {"province": "PI", "city": " San Giuliano Terme", "coop": "CDT", "name": "Conad", "extra": "https://s1b.altuoservizio.conad.it/conadshopstorefront/conad/it/store-finder/?codiceAnacan=003698&extra=true", "company": "CONAD", "selected": "false", "hours": "08:00 - 20:00", "longitude": 10.4144582804, "order": "https://s1a.altuoservizio.conad.it/conadshopstorefront/conad/it/store-finder/?codiceAnacan=003698", "website": "null.003698.html", "time": "12 min", "address": "Via Brodolini 20, 56010  San Giuliano Terme", "latitude": 43.7773635099, "storetype": "", "cap": "56010", "data": "Conad", "id": "003698", "opening": "Adesso Aperto", "distance": "6.15 km"}, {"province": "PI", "city": " Cascina", "coop": "CDT", "name": "Conad city", "opening": "Adesso Aperto", "company": "CONAD", "selected": "false", "hours": "08:00 - 20:00", "longitude": 10.5153958406, "order": "https://s1a.altuoservizio.conad.it/conadshopstorefront/conad/it/store-finder/?codiceAnacan=006328", "website": "null.006328.html", "time": "20 min", "address": "Via Generale Carlo Alberto Dalla Chiesa 1/a, 56021  Cascina", "latitude": 43.6786632892, "storetype": "", "cap": "56021", "data": "Conad city", "id": "006328", "distance": "10.38 km"}, {"province": "PI", "city": " Pisa", "coop": "CDT", "name": "Conad city", "opening": "Adesso Aperto", "company": "CONAD", "selected": "false", "hours": "08:00 - 20:00", "longitude": 10.273954, "order": "https://s1a.altuoservizio.conad.it/conadshopstorefront/conad/it/store-finder/?codiceAnacan=003697", "website": "null.003697.html", "time": "23 min", "address": "Via Maiorca 39, 56013  Pisa", "latitude": 43.676198, "storetype": "", "cap": "56013", "data": "Conad city", "id": "003697", "distance": "11.51 km"}, {"province": "PI", "city": " Cascina", "coop": "CDT", "name": "Conad", "extra": "https://s1b.altuoservizio.conad.it/conadshopstorefront/conad/it/store-finder/?codiceAnacan=009528&extra=true", "company": "CONAD", "selected": "false", "hours": "08:00 - 20:30", "longitude": 10.551885, "order": "https://s1a.altuoservizio.conad.it/conadshopstorefront/conad/it/store-finder/?codiceAnacan=009528", "website": "null.009528.html", "time": "26 min", "address": "Via Tosco Romagnola Snc, 56021  Cascina", "latitude": 43.676187, "storetype": "", "cap": "56021", "data": "Conad", "id": "009528", "opening": "Adesso Aperto", "distance": "13.15 km"}, {"province": "PI", "city": " Pisa", "coop": "CDT", "name": "Conad city", "opening": "Adesso Aperto", "company": "CONAD", "selected": "false", "hours": "08:00 - 20:00", "longitude": 10.29170502, "order": "https://s1a.altuoservizio.conad.it/conadshopstorefront/conad/it/store-finder/?codiceAnacan=002519", "website": "null.002519.html", "time": "28 min", "address": "Via Del Tirreno 215, 56018  Pisa", "latitude": 43.61977217, "storetype": "", "cap": "56018", "data": "Conad city", "id": "002519", "distance": "14.48 km"}, {"province": "PI", "city": " Lucca", "coop": "CDT", "name": "Conad", "extra": "https://s1b.altuoservizio.conad.it/conadshopstorefront/conad/it/store-finder/?codiceAnacan=008788&extra=true", "company": "CONAD", "selected": "false", "hours": "08:00 - 20:30", "longitude": 10.4766451768, "order": "https://s1a.altuoservizio.conad.it/conadshopstorefront/conad/it/store-finder/?codiceAnacan=008788", "website": "null.008788.html", "time": "29 min", "address": "Via Einaudi Snc, 55100  Lucca", "latitude": 43.842420264, "storetype": "", "cap": "55100", "data": "Conad", "id": "008788", "opening": "Adesso Aperto", "distance": "14.6 km"}, {"province": "PI", "city": " Collesalvetti", "coop": "CDT", "name": "Conad", "opening": "Adesso Aperto", "company": "CONAD", "selected": "false", "hours": "08:00 - 20:00", "longitude": 10.35220437, "order": "https://s1a.altuoservizio.conad.it/conadshopstorefront/conad/it/store-finder/?codiceAnacan=000802", "website": "null.000802.html", "time": "30 min", "address": "Via C. Marx 27, 57014  Collesalvetti", "latitude": 43.59160215, "storetype": "", "cap": "57014", "data": "Conad", "id": "000802", "distance": "15.13 km"}, {"province": "PI", "city": " Collesalvetti", "coop": "CDT", "name": "Conad", "opening": "Adesso Aperto", "company": "CONAD", "selected": "false", "hours": "08:00 - 20:00", "longitude": 10.47114535, "order": "https://s1a.altuoservizio.conad.it/conadshopstorefront/conad/it/store-finder/?codiceAnacan=000804", "website": "null.000804.html", "time": "30 min", "address": "Via Dell'impresa 14, 57014  Collesalvetti", "latitude": 43.59385297, "storetype": "", "cap": "57014", "data": "Conad", "id": "000804", "distance": "15.4 km"}, {"province": "PI", "city": " Lucca", "coop": "CDT", "name": "Conad", "extra": "https://s1b.altuoservizio.conad.it/conadshopstorefront/conad/it/store-finder/?codiceAnacan=008996&extra=true", "company": "CONAD", "selected": "false", "hours": "08:00 - 20:30", "longitude": 10.5271097, "order": "https://s1a.altuoservizio.conad.it/conadshopstorefront/conad/it/store-finder/?codiceAnacan=008996", "website": "null.008996.html", "time": "33 min", "address": "Via Di Tiglio 1075, 55100  Lucca", "latitude": 43.8405555, "storetype": "", "cap": "55100", "data": "Conad", "id": "008996", "opening": "Adesso Aperto", "distance": "16.52 km"}, {"province": "PI", "city": " Massarosa", "coop": "CDT", "name": "Conad", "extra": "https://s1b.altuoservizio.conad.it/conadshopstorefront/conad/it/store-finder/?codiceAnacan=000824&extra=true", "company": "CONAD", "selected": "false", "hours": "08:00 - 20:00", "longitude": 10.32785033, "order": "https://s1a.altuoservizio.conad.it/conadshopstorefront/conad/it/store-finder/?codiceAnacan=000824", "website": "null.000824.html", "time": "36 min", "address": "Via Sarzanese Snc, 55054  Massarosa", "latitude": 43.879026, "storetype": "", "cap": "55054", "data": "Conad", "id": "000824", "opening": "Adesso Aperto", "distance": "18.36 km"}, {"province": "PI", "city": " Livorno", "coop": "CDT", "name": "Conad", "extra": "https://s1b.altuoservizio.conad.it/conadshopstorefront/conad/it/store-finder/?codiceAnacan=004841&extra=true", "company": "CONAD", "selected": "false", "hours": "08:00 - 20:00", "longitude": 10.3234557901, "order": "https://s1a.altuoservizio.conad.it/conadshopstorefront/conad/it/store-finder/?codiceAnacan=004841", "website": "null.004841.html", "time": "37 min", "address": "Via Dell'antimonio 4/8, 57017  Livorno", "latitude": 43.5632399982, "storetype": "", "cap": "57017", "data": "Conad", "id": "004841", "opening": "Adesso Aperto", "distance": "18.84 km"}, {"province": "PI", "city": " Viareggio", "coop": "CDT", "name": "Conad", "extra": "https://s1b.altuoservizio.conad.it/conadshopstorefront/conad/it/store-finder/?codiceAnacan=009522&extra=true", "company": "CONAD", "selected": "false", "hours": "08:00 - 20:30", "longitude": 10.258671, "order": "https://s1a.altuoservizio.conad.it/conadshopstorefront/conad/it/store-finder/?codiceAnacan=009522", "website": "null.009522.html", "time": "39 min", "address": "Via Pisana Snc, 55049  Viareggio", "latitude": 43.865744, "storetype": "", "cap": "55049", "data": "Conad", "id": "009522", "opening": "Adesso Aperto", "distance": "19.61 km"}, {"province": "PI", "city": " Pontedera", "coop": "CDT", "name": "Conad city", "opening": "Adesso Aperto", "company": "CONAD", "selected": "false", "hours": "08:00 - 20:00", "longitude": 10.6324471, "order": "https://s1a.altuoservizio.conad.it/conadshopstorefront/conad/it/store-finder/?codiceAnacan=006506", "website": "null.006506.html", "time": "39 min", "address": "Via XII Aprile 12, 56025  Pontedera", "latitude": 43.66359, "storetype": "", "cap": "56025", "data": "Conad city", "id": "006506", "distance": "19.69 km"}, {"province": "PI", "city": " Livorno", "coop": "CDT", "name": "Conad city", "opening": "Adesso Aperto", "company": "CONAD", "selected": "false", "hours": "08:00 - 20:00", "longitude": 10.3326128941, "order": "https://s1a.altuoservizio.conad.it/conadshopstorefront/conad/it/store-finder/?codiceAnacan=006504", "website": "null.006504.html", "time": "39 min", "address": "Via Padre Alessandro Baroni 9/15, 57124  Livorno", "latitude": 43.5513537089, "storetype": "", "cap": "57124", "data": "Conad city", "id": "006504", "distance": "19.87 km"}, {"province": "PI", "city": " Livorno", "coop": "CDT", "name": "Conad", "opening": "Adesso Aperto", "company": "CONAD", "selected": "false", "hours": "08:00 - 20:00", "longitude": 10.3064563684, "order": "https://s1a.altuoservizio.conad.it/conadshopstorefront/conad/it/store-finder/?codiceAnacan=008697", "website": "null.008697.html", "time": "41 min", "address": "Via Grande 166, 57100  Livorno", "latitude": 43.5500770994, "storetype": "", "cap": "57100", "data": "Conad", "id": "008697", "distance": "20.69 km"}, {"province": "PI", "city": " Viareggio", "coop": "CDT", "name": "Conad", "opening": "Adesso Aperto", "company": "CONAD", "selected": "false", "hours": "08:00 - 20:00", "longitude": 10.2548424049, "order": "https://s1a.altuoservizio.conad.it/conadshopstorefront/conad/it/store-finder/?codiceAnacan=003692", "website": "null.003692.html", "time": "41 min", "address": "Via Ciabattini Ottorino 55, 55049  Viareggio", "latitude": 43.8783560118, "storetype": "", "cap": "55049", "data": "Conad", "id": "003692", "distance": "20.93 km"}, {"province": "PI", "city": " Livorno", "coop": "CDT", "name": "Conad city", "opening": "Adesso Aperto", "company": "CONAD", "selected": "false", "hours": "08:00 - 20:00", "longitude": 10.3144515878, "order": "https://s1a.altuoservizio.conad.it/conadshopstorefront/conad/it/store-finder/?codiceAnacan=003696", "website": "null.003696.html", "time": "43 min", "address": "Via Antonio Gramsci 178, 57125  Livorno", "latitude": 43.5382398871, "storetype": "", "cap": "57125", "data": "Conad city", "id": "003696", "distance": "21.7 km"}, {"province": "PI", "city": " Casciana Terme Lari", "coop": "CDT", "name": "Conad", "opening": "Adesso Aperto", "company": "CONAD", "selected": "false", "hours": "07:30 - 20:00", "longitude": 10.62911321, "order": "https://s1a.altuoservizio.conad.it/conadshopstorefront/conad/it/store-finder/?codiceAnacan=000808", "website": "null.000808.html", "time": "48 min", "address": "Via Provinciale Del Commercio 48/a1, 56035  Casciana Terme Lari", "latitude": 43.58293263, "storetype": "", "cap": "56035", "data": "Conad", "id": "000808", "distance": "24.02 km"}, {"province": "PI", "city": " Livorno", "coop": "CDT", "name": "Conad city", "opening": "Adesso Aperto", "company": "CONAD", "selected": "false", "hours": "08:30 - 19:30", "longitude": 10.32232723, "order": "https://s1a.altuoservizio.conad.it/conadshopstorefront/conad/it/store-finder/?codiceAnacan=000798", "website": "null.000798.html", "time": "49 min", "address": "Via Carlo Puini 97, 57128  Livorno", "latitude": 43.50687528, "storetype": "", "cap": "57128", "data": "Conad city", "id": "000798", "distance": "24.86 km"}], "RI": [{"province": "RI", "city": " Rieti", "coop": "PAC", "name": "Conad superstore", "opening": "Adesso Aperto", "company": "CONAD", "selected": "true", "hours": "09:00 - 20:30", "longitude": 12.8529814817, "order": "https://s2c.altuoservizio.conad.it/006961/", "website": "null.006961.html", "time": "0 min", "shipment": "https://s2c.altuoservizio.conad.it/006961/", "address": "Via Fundania/via Mercatanti Snc, 02100  Rieti", "latitude": 42.4033526145, "storetype": "", "cap": "02100", "data": "Conad superstore", "id": "006961", "distance": "0.33 km"}, {"province": "RI", "city": " Terni", "coop": "PAC", "name": "Conad superstore", "opening": "Adesso Aperto", "company": "CONAD", "selected": "false", "hours": "08:00 - 20:00", "longitude": 12.6471642032, "order": "https://s2c.altuoservizio.conad.it/000152/", "website": "null.000152.html", "time": "48 min", "shipment": "https://s2c.altuoservizio.conad.it/000152/", "address": "Via Donatori Di Organi 10, 05100  Terni", "latitude": 42.5605524475, "storetype": "", "cap": "05100", "data": "Conad superstore", "id": "000152", "distance": "24.43 km"}], "KR": [{"province": "KR", "city": " Crotone", "coop": "PAC", "name": "Conad", "opening": "Adesso Aperto", "company": "CONAD", "selected": "true", "hours": "08:00 - 20:30", "longitude": 17.127875, "order": "https://s2c.altuoservizio.conad.it/009555/", "website": "null.009555.html", "time": "2 min", "shipment": "https://s2c.altuoservizio.conad.it/009555/", "address": "Via Leonardo Gallucci 54, 88900  Crotone", "latitude": 39.071823, "storetype": "", "cap": "88900", "data": "Conad", "id": "009555", "distance": "1.0 km"}, {"province": "KR", "city": " Crotone", "coop": "PAC", "name": "Conad", "opening": "Adesso Aperto", "company": "CONAD", "selected": "false", "hours": "08:00 - 13:00<br/>16:30 - 20:30", "longitude": 17.111206, "order": "https://s2c.altuoservizio.conad.it/008943/", "website": "null.008943.html", "time": "3 min", "shipment": "https://s2c.altuoservizio.conad.it/008943/", "address": "Via G. Da Fiore 29, 88900  Crotone", "latitude": 39.075299, "storetype": "", "cap": "88900", "data": "Conad", "id": "008943", "distance": "1.5 km"}, {"province": "KR", "city": " Rocca Di Neto", "coop": "PAC", "name": "Conad", "opening": "Adesso Aperto", "company": "CONAD", "selected": "false", "hours": "08:00 - 13:00<br/>16:00 - 20:00", "longitude": 17.0130294, "order": "https://s2c.altuoservizio.conad.it/008656/", "website": "null.008656.html", "time": "29 min", "address": "Via Setteporte Snc, 88821  Rocca Di Neto", "latitude": 39.1766501, "storetype": "", "cap": "88821", "data": "Conad", "id": "008656", "distance": "14.51 km"}]}